[{"name":"Museum Komodo dan Taman Reptil","wd":"Q12499644","lat":-6.303947305,"lng":106.901011,"img":"http:\/\/commons.wikimedia.org\/wiki\/Special:FilePath\/Komodo%20Indonesian%20Fauna%20Museum.jpg","wp":"https:\/\/id.wikipedia.org\/wiki\/Museum_Komodo_dan_Taman_Reptil"},{"name":"Perpustakaan Sekolah Dasar Negeri 2 Kertawinangun","wd":"Q116777572","lat":-6.6521053,"lng":108.0737017,"img":null,"wp":null},{"name":"Perpustakaan Desa Kampung Padang","wd":"Q136298741","lat":0.873443162,"lng":99.563531074,"img":null,"wp":null},{"name":"Dinas Perpustakaan dan Kearsipan Kota Payakumbuh","wd":"Q109421941","lat":-0.241038931,"lng":100.615110039,"img":null,"wp":null},{"name":"Perpustakaan Fakultas Teknik UGM","wd":"Q117341599","lat":-7.7659093,"lng":110.3637106,"img":"http:\/\/commons.wikimedia.org\/wiki\/Special:FilePath\/Perpustakaan%20Fakultas%20Teknik%20UGM.png","wp":null},{"name":"Museum Ikan Rokan Hilir","wd":"Q86584557","lat":2.107944444,"lng":100.823555555,"img":null,"wp":null},{"name":"Perpustakaan Sukaraya","wd":"Q117016547","lat":-4.138719608,"lng":104.17458353,"img":null,"wp":null},{"name":"Perpustakaan Rantobi","wd":"Q133868869","lat":0.66836881,"lng":99.314864913,"img":null,"wp":null},{"name":"Balai Bahasa Bali","wd":"Q52633662","lat":-8.632275828,"lng":115.23779213,"img":null,"wp":"https:\/\/id.wikipedia.org\/wiki\/Balai_Bahasa_Provinsi_Bali"},{"name":"Perpustakaan Batahan II","wd":"Q133858098","lat":0.346964441,"lng":99.239779335,"img":null,"wp":null},{"name":"Perpustakaan Sekolah Menengah Atas Negeri 2 Manokwari","wd":"Q131196155","lat":-0.858883618,"lng":134.045471837,"img":null,"wp":null},{"name":"Perpustakaan Bulu Soma","wd":"Q133868913","lat":0.691608025,"lng":99.480270634,"img":null,"wp":null},{"name":"Dinas Kearsipan dan Perpustakaan Kabupaten Trenggalek","wd":"Q109680075","lat":-8.053013845,"lng":111.707472568,"img":null,"wp":null},{"name":"Museum Universitas Islam Indonesia","wd":"Q136394823","lat":-7.688415734,"lng":110.415065929,"img":null,"wp":"https:\/\/id.wikipedia.org\/wiki\/Museum_Universitas_Islam_Indonesia"},{"name":"Bali Zoo","wd":"Q75331465","lat":-8.592,"lng":115.266555555,"img":null,"wp":null},{"name":"Pusat Perpustakaan UIN Sunan Gunung Djati Bandung","wd":"Q126127422","lat":-6.93132,"lng":107.71693,"img":null,"wp":null},{"name":"Perpustakaan Desa Tangga Bosi","wd":"Q126689175","lat":0.988950103,"lng":99.507400146,"img":null,"wp":null},{"name":"Dinas Perpustakaan dan Arsip Daerah Kota Tangerang Selatan","wd":"Q109621405","lat":-6.343907501,"lng":106.721597068,"img":null,"wp":null},{"name":"Putrawan Museum of Art (PUMA)","wd":"Q115863292","lat":-8.608559382,"lng":115.23810002,"img":null,"wp":null},{"name":"Perpustakaan Sekolah Menengah Pertama Islam Terpadu Al Husnayain","wd":"Q136378257","lat":0.840445182,"lng":99.563715832,"img":null,"wp":null},{"name":"Dinas Kearsipan dan Perpustakaan Kabupaten Bener Meriah","wd":"Q109381868","lat":4.72649922,"lng":96.852886339,"img":null,"wp":null},{"name":"Perpustakaan Sekolah Tinggi Agama Islam Darul Ulum Sarolangun","wd":"Q117055912","lat":-2.501111111,"lng":102.712222222,"img":null,"wp":null},{"name":"Museum Airlangga","wd":"Q108940633","lat":-7.80725,"lng":111.97389,"img":null,"wp":"https:\/\/id.wikipedia.org\/wiki\/Museum_Airlangga"},{"name":"Perpustakaan Desa Bange","wd":"Q136329086","lat":0.971187015,"lng":99.521696205,"img":null,"wp":null},{"name":"Benteng VOC Kota Tuban","wd":"Q115864015","lat":-6.7811664,"lng":111.9171436,"img":null,"wp":null},{"name":"Museum Balai Rung Sri","wd":"Q115863865","lat":0.796839554,"lng":102.044894536,"img":null,"wp":null},{"name":"Taman Safari Indonesia 2","wd":"Q29129","lat":-7.758113949,"lng":112.663931965,"img":null,"wp":"https:\/\/id.wikipedia.org\/wiki\/The_Grand_Taman_Safari_Prigen_Jawa_Timur"},{"name":"Perpustakaan Madrasah Aliyah Negeri Mandailing Natal","wd":"Q136088463","lat":0.80807296,"lng":99.572241261,"img":null,"wp":null},{"name":"Perpustakaan Kelurahan Huta Godang","wd":"Q135778093","lat":0.538567844,"lng":99.767382729,"img":null,"wp":null},{"name":"Perpustakaan Sekolah Menengah Pertama Mondial Semarang","wd":"Q117290232","lat":-7.019510599,"lng":110.436529275,"img":null,"wp":null},{"name":"Perpustakaan Ranjo Batu","wd":"Q133928753","lat":0.610566639,"lng":99.905664429,"img":null,"wp":null},{"name":"Museum Kota Lhokseumawe","wd":"Q97198862","lat":5.180545212,"lng":97.140542052,"img":null,"wp":"https:\/\/id.wikipedia.org\/wiki\/Museum_Kota_Lhokseumawe"},{"name":"Dinas Perpustakaan dan Kearsipan Provinsi DKI Jakarta","wd":"Q109621226","lat":-6.171088329,"lng":106.885806014,"img":null,"wp":null},{"name":"Museum Sejarah  Perminyakan Kota Tarakan","wd":"Q115796708","lat":3.2994475,"lng":117.620467767,"img":null,"wp":null},{"name":"Museum Akademi Kepolisian","wd":"Q127104947","lat":-7.017916509,"lng":110.417942744,"img":null,"wp":null},{"name":"Museum Tanjungpandan","wd":"Q97307651","lat":-2.740030154,"lng":107.628365328,"img":null,"wp":"https:\/\/id.wikipedia.org\/wiki\/Museum_Tanjungpandan"},{"name":"Perpustakaan Bandar Panjang","wd":"Q133929208","lat":0.611476995,"lng":99.840171997,"img":null,"wp":null},{"name":"Perpustakaan Aek Garingging","wd":"Q133868822","lat":0.599982987,"lng":99.286031397,"img":null,"wp":null},{"name":"UPTD Museum Negeri Provinsi Lampung","wd":"Q126125719","lat":-5.370925,"lng":105.241211,"img":null,"wp":null},{"name":"Museum Cakraningrat","wd":"Q97307640","lat":-7.04811,"lng":112.73545,"img":null,"wp":"https:\/\/id.wikipedia.org\/wiki\/Museum_Cakraningrat"},{"name":"Museum Pahlawan Nasional Jamin Gintings","wd":"Q97198871","lat":3.06115,"lng":98.5206,"img":"http:\/\/commons.wikimedia.org\/wiki\/Special:FilePath\/Museum%20Pahlawan%20Nasional%20Jamin%20Ginting.jpg","wp":"https:\/\/id.wikipedia.org\/wiki\/Museum_Pahlawan_Nasional_Jamin_Gintings"},{"name":"Museum Wayang Kekayon","wd":"Q12499678","lat":-7.8153785,"lng":110.4131046,"img":"http:\/\/commons.wikimedia.org\/wiki\/Special:FilePath\/Wayang%20Klithik%20Museum%20Wayang%20Kekayon.jpg","wp":"https:\/\/id.wikipedia.org\/wiki\/Museum_Wayang_Kekayon"},{"name":"Museum 45 Surabaya","wd":"Q115864205","lat":-7.2918622,"lng":112.7212477,"img":null,"wp":null},{"name":"Perpustakaan Sekolah Menengah Pertama Negeri 36 Medan","wd":"Q126678944","lat":3.550005594,"lng":98.6916498,"img":null,"wp":null},{"name":"Taman Kupu-kupu Gita Persada","wd":"Q5565036","lat":-5.420003275,"lng":105.1886238,"img":null,"wp":"https:\/\/id.wikipedia.org\/wiki\/Taman_Kupu-kupu_Gita_Persada"},{"name":"Perpustakaan Universitas Bumi Persada","wd":"Q117055445","lat":5.140592956,"lng":97.149464637,"img":null,"wp":null},{"name":"Perpustakaan Sekolah Menengah Kejuruan Negeri 7 Medan","wd":"Q126719680","lat":3.549921824,"lng":98.692019,"img":null,"wp":null},{"name":"Dinas Kearsipan dan Perpustakaan Kabupaten Indramayu","wd":"Q109640432","lat":-6.329107241,"lng":108.319438326,"img":null,"wp":null},{"name":"Museum Nekara","wd":"Q108940379","lat":-6.147809507,"lng":120.452125303,"img":null,"wp":"https:\/\/id.wikipedia.org\/wiki\/Museum_Tanadoang"},{"name":"Museum Rumah Bolon Adat Pematang Purba","wd":"Q86587935","lat":2.916286465,"lng":98.715438179,"img":"http:\/\/commons.wikimedia.org\/wiki\/Special:FilePath\/Rumah%20Bolon%20at%20Pematang%20Purba.jpg","wp":"https:\/\/id.wikipedia.org\/wiki\/Museum_Rumah_Bolon_Adat_Pematang_Purba"},{"name":"Perpustakaan Sekolah Menengah Atas Negeri Unggul Darussaadah Kluet Raya","wd":"Q117285986","lat":3.153862835,"lng":97.304825992,"img":null,"wp":null},{"name":"Perpustakaan Sekolah Dasar Plus Daarul Hikmah","wd":"Q116777484","lat":-6.9390842,"lng":107.5180129,"img":null,"wp":null},{"name":"Pusat Dokumentasi dan Informasi Kebudayaan Minangkabau","wd":"Q643129","lat":-0.470234,"lng":100.378817,"img":"http:\/\/commons.wikimedia.org\/wiki\/Special:FilePath\/Rumah%20Gadang%20Minangkabau%20PDIKM%2C%20Padang%20Panjang.jpg","wp":"https:\/\/id.wikipedia.org\/wiki\/Pusat_Dokumentasi_dan_Informasi_Kebudayaan_Minangkabau"},{"name":"Museum Haji Muhammad Sattar","wd":"Q115393096","lat":-7.956831083,"lng":112.615441911,"img":null,"wp":null},{"name":"Museum Reenactor Ngalam","wd":"Q115407020","lat":-7.954511821,"lng":112.608712301,"img":null,"wp":null},{"name":"Museum Sejarah Etnis Tionghoa","wd":"Q109433490","lat":-6.923162687,"lng":107.576730511,"img":null,"wp":"https:\/\/id.wikipedia.org\/wiki\/Museum_Sejarah_Etnis_Tionghoa"},{"name":"Museum van het Bataviaasch Genootschap","wd":"Q97487522","lat":-6.176113295,"lng":106.822284226,"img":null,"wp":null},{"name":"Museum Perang Dunia II","wd":"Q109354820","lat":2.014475652,"lng":128.283265744,"img":null,"wp":null},{"name":"Museum Gedung Sate","wd":"Q108991304","lat":-6.902226245,"lng":107.619229183,"img":"http:\/\/commons.wikimedia.org\/wiki\/Special:FilePath\/Museum%20Gedung%20Sate.jpg","wp":"https:\/\/id.wikipedia.org\/wiki\/Museum_Gedung_Sate"},{"name":"Perpustakaan Madrasah Aliyah Pondok Pesantren Izzur Risalah","wd":"Q135979575","lat":0.807597547,"lng":99.582635938,"img":null,"wp":null},{"name":"Perpustakaan Universitas Sam Ratulangi","wd":"Q109528209","lat":1.455530536,"lng":124.827172441,"img":null,"wp":null},{"name":"Museum Maritim Indonesia","wd":"Q56391591","lat":-6.107527455,"lng":106.883396912,"img":"http:\/\/commons.wikimedia.org\/wiki\/Special:FilePath\/Museum%20Maritim%20Indonesia.jpg","wp":"https:\/\/id.wikipedia.org\/wiki\/Museum_Maritim_Indonesia"},{"name":"Perpustakaan UPT Sekolah Dasar Negara 287 Gresik","wd":"Q119549218","lat":-6.990247864,"lng":112.496214435,"img":null,"wp":null},{"name":"Perpustakaan Sekolah Dasar Negeri 2 Wanasaba Kidul","wd":"Q116777510","lat":-6.771088569,"lng":108.493534598,"img":null,"wp":null},{"name":"Dinas Perpustakaan dan Kearsipan Kota Prabumulih","wd":"Q109483362","lat":-3.43590378,"lng":104.238986226,"img":null,"wp":null},{"name":"Dinas Perpustakaan dan Kearsipan Daerah Provinsi Kalimantan Timur","wd":"Q109568250","lat":-0.47252568,"lng":117.138127197,"img":null,"wp":null},{"name":"Museum Batik Danar Hadi","wd":"Q12499633","lat":-7.568431992,"lng":110.816908025,"img":"http:\/\/commons.wikimedia.org\/wiki\/Special:FilePath\/Patung%20Seorang%20Wanita%20Pembatik.jpg","wp":"https:\/\/id.wikipedia.org\/wiki\/Museum_Batik_Danar_Hadi"},{"name":"Museum Dullah","wd":"Q109437457","lat":-7.564217978,"lng":110.810767613,"img":null,"wp":"https:\/\/id.wikipedia.org\/wiki\/Museum_Dullah"},{"name":"Dinas Kearsipan dan Perpustakaan Kabupaten Lombok Barat","wd":"Q109484304","lat":-8.665137188,"lng":116.131720826,"img":null,"wp":null},{"name":"Perpustakaan Fakultas Bahasa Seni UNP","wd":"Q129676408","lat":-0.89959367,"lng":100.347838183,"img":null,"wp":null},{"name":"Dinas Perpustakaan dan Kearsipan Kabupaten Pekalongan","wd":"Q109668195","lat":-7.025847315,"lng":109.590176454,"img":null,"wp":null},{"name":"Perpustakaan Sopo Tinjak","wd":"Q133868848","lat":0.704238034,"lng":99.500013502,"img":null,"wp":null},{"name":"Dinas Perpustakaan dan Kearsipan Kota Serang","wd":"Q109609956","lat":-6.11978584,"lng":106.173173853,"img":null,"wp":null},{"name":"Museum Seni Lukis Klasik Bali Nyoman Gunarsa","wd":"Q108940703","lat":-8.55197,"lng":115.38687,"img":null,"wp":null},{"name":"Museum Pusat TNI AD \"Dharma Wiratama\"","wd":"Q12499663","lat":-7.78262,"lng":110.37537,"img":"http:\/\/commons.wikimedia.org\/wiki\/Special:FilePath\/Dharma%20Wiratama%20Museum%2004.jpg","wp":"https:\/\/id.wikipedia.org\/wiki\/Museum_Pusat_TNI_AD_Dharma_Wiratama"},{"name":"Dinas Perpustakaan dan Kearsipan Kabupaten Bangli","wd":"Q109513057","lat":-8.432853043,"lng":115.362902426,"img":null,"wp":null},{"name":"Museum Anatomi FKIK Universitas Katolik Indonesia Atma Jaya","wd":"Q108959673","lat":-6.125167729,"lng":106.793358121,"img":null,"wp":"https:\/\/id.wikipedia.org\/wiki\/Museum_Anatomi_Universitas_Katolik_Atma_Jaya"},{"name":"Perpustakaan Nagari Koto Baru","wd":"Q126114712","lat":-0.7453375,"lng":100.8939978,"img":null,"wp":null},{"name":"Museum Pusat Informasi Kebudayaan Sulawesi Tenggara","wd":"Q109374444","lat":-3.97717338,"lng":122.525067001,"img":null,"wp":null},{"name":"Museum Telekomunikasi","wd":"Q19746492","lat":-6.302776715,"lng":106.890652762,"img":"http:\/\/commons.wikimedia.org\/wiki\/Special:FilePath\/Patih%20Gajah%20Mada.jpg","wp":"https:\/\/id.wikipedia.org\/wiki\/Museum_Telekomunikasi"},{"name":"Museum Batik Nasional Taman Mini Indonesia Indah","wd":"Q109404742","lat":-6.305491717,"lng":106.895748351,"img":null,"wp":null},{"name":"Museum Art Mon Decor","wd":"Q109404866","lat":-6.146707115,"lng":106.840757065,"img":null,"wp":null},{"name":"Perpustakaan Daerah Rembang","wd":"Q115863109","lat":-6.703535066,"lng":111.340835583,"img":null,"wp":null},{"name":"Dinas Perpustakaan dan Arsip Provinsi Kalimantan Tengah","wd":"Q109568220","lat":-2.211775937,"lng":113.927280837,"img":null,"wp":null},{"name":"Museum Pedir","wd":"Q97374869","lat":5.258267418,"lng":96.071633496,"img":"http:\/\/commons.wikimedia.org\/wiki\/Special:FilePath\/Pedir%20Museum.jpg","wp":"https:\/\/id.wikipedia.org\/wiki\/Museum_Pedir"},{"name":"Perpustakaan Kantor Dokumentasi Budaya Bali","wd":"Q104203666","lat":-8.66842,"lng":115.2363,"img":null,"wp":null},{"name":"Perpustakaan Desa Sasaran","wd":"Q135746825","lat":0.605445445,"lng":99.109618509,"img":null,"wp":null},{"name":"Perpustakaan Desa Sigalapang Julu","wd":"Q136292895","lat":0.87151268,"lng":99.568371881,"img":null,"wp":null},{"name":"Dinas Kearsipan dan Perpustakaan Kota Pekalongan","wd":"Q109668207","lat":-6.877543036,"lng":109.675772668,"img":null,"wp":null},{"name":"Dinas Perpustakaan dan Kearsipan Kabupaten Aceh Barat","wd":"Q109381843","lat":4.155187156,"lng":96.128533939,"img":null,"wp":null},{"name":"Perpustakaan Sekolah Dasar Negeri 100 Gunung Tua","wd":"Q136399089","lat":0.887548965,"lng":99.560370786,"img":null,"wp":null},{"name":"Sinematek Indonesia","wd":"Q7522410","lat":-6.222085,"lng":106.832996,"img":"http:\/\/commons.wikimedia.org\/wiki\/Special:FilePath\/Library%20at%20Sinematek%20Indonesia.jpg","wp":"https:\/\/id.wikipedia.org\/wiki\/Sinematek_Indonesia"},{"name":"Museum Nike Ardilla","wd":"Q115794539","lat":-6.940239086,"lng":107.672521981,"img":null,"wp":null},{"name":"Museum Old Cinema","wd":"Q109433449","lat":-7.937091129,"lng":112.627762139,"img":null,"wp":"https:\/\/id.wikipedia.org\/wiki\/Museum_Old_Cinema"},{"name":"Perpustakaan Freedom","wd":"Q117302350","lat":-6.213041666,"lng":106.829813888,"img":"http:\/\/commons.wikimedia.org\/wiki\/Special:FilePath\/Perpustakaan%20Freedom.jpg","wp":null},{"name":"Museum Flora dan Fauna Tarakan","wd":"Q25459827","lat":3.313297497,"lng":117.594602768,"img":"http:\/\/commons.wikimedia.org\/wiki\/Special:FilePath\/Museum%20Flora%20dan%20Fauna%20Kota%20Tarakan.JPG","wp":"https:\/\/id.wikipedia.org\/wiki\/Museum_Flora_dan_Fauna_Tarakan"},{"name":"Perpustakaan Sekolah Menengah Kejuruan Negeri 1 Medan","wd":"Q126678853","lat":3.587004179,"lng":98.68750813,"img":null,"wp":null},{"name":"Perpustakaan Pusat Penelitian Kelapa Sawit (PPKS)","wd":"Q65213422","lat":3.55665016,"lng":98.687928442,"img":"http:\/\/commons.wikimedia.org\/wiki\/Special:FilePath\/Bagian%20Informasi%20Perpustakaan%20PPKS.jpg","wp":"https:\/\/id.wikipedia.org\/wiki\/Perpustakaan_PPKS"},{"name":"CAN\u2019S Gallery","wd":"Q109745117","lat":-6.175344997,"lng":106.817157168,"img":null,"wp":null},{"name":"Batam 3D Museum","wd":"Q86584780","lat":1.163138888,"lng":104.039333333,"img":null,"wp":null},{"name":"Museum Batam Raja Ali Haji","wd":"Q108948578","lat":1.129777167,"lng":104.05370568,"img":null,"wp":"https:\/\/id.wikipedia.org\/wiki\/Museum_Batam_Raja_Ali_Haji"},{"name":"Dinas Perpustakaan dan Kearsipan Daerah Kota Tasikmalaya","wd":"Q109640578","lat":-7.307087089,"lng":108.201682981,"img":null,"wp":null},{"name":"Perpustakaan Desa Huta Raja","wd":"Q136331164","lat":0.729873453,"lng":99.565428516,"img":null,"wp":null},{"name":"Museum Daerah Kabupaten Langkat","wd":"Q86586223","lat":3.892805555,"lng":98.425555555,"img":null,"wp":"https:\/\/id.wikipedia.org\/wiki\/Museum_Daerah_Kabupaten_Langkat"},{"name":"Dinas Perpustakaan dan Arsip Kabupaten Aceh Jaya","wd":"Q109381854","lat":4.623487134,"lng":95.615829139,"img":null,"wp":null},{"name":"De Mata Trick Eye Museum","wd":"Q25580609","lat":-7.816230561,"lng":110.387637723,"img":null,"wp":null},{"name":"Perpustakaan Desa Maga Lombang","wd":"Q136035515","lat":0.730359813,"lng":99.614180073,"img":null,"wp":null},{"name":"Taman purbakala Pugung Raharjo","wd":"Q12518872","lat":-5.282042885,"lng":105.561018277,"img":"http:\/\/commons.wikimedia.org\/wiki\/Special:FilePath\/Pugung%20Raharjo%20Pyramid%202.jpg","wp":"https:\/\/id.wikipedia.org\/wiki\/Situs_Purbakala_Pugung_Raharjo"},{"name":"Museum Zoologi","wd":"Q65251651","lat":-0.300666666,"lng":100.370527777,"img":"http:\/\/commons.wikimedia.org\/wiki\/Special:FilePath\/Museum%20Zoologi%20Bukittinggi%202.jpg","wp":"https:\/\/id.wikipedia.org\/wiki\/Museum_Zoologi"},{"name":"Perpustakaan Hutaimbaru","wd":"Q134461878","lat":1.009801266,"lng":99.197905101,"img":null,"wp":null},{"name":"Perpustakaan Universitas Lambung Mangkurat","wd":"Q109581348","lat":-3.297666487,"lng":114.585468981,"img":null,"wp":null},{"name":"Perpustakaan Madrasah Ibtidaiyah YKUI Putra Sambogunung Dukun","wd":"Q119549065","lat":-6.988503092,"lng":112.49726265,"img":null,"wp":null},{"name":"Perpustakaan Ranto Nalinjang","wd":"Q133828133","lat":0.530336249,"lng":99.447817063,"img":null,"wp":null},{"name":"Museum Sasmitaloka Jenderal Besar DR. A.H. Nasution","wd":"Q1839448","lat":-6.19297,"lng":106.83268,"img":"http:\/\/commons.wikimedia.org\/wiki\/Special:FilePath\/MuseumJendralAHNasution.jpg","wp":"https:\/\/id.wikipedia.org\/wiki\/Museum_Sasmitaloka_Jenderal_Besar_DR._A.H._Nasution"},{"name":"Dinas Perpustakaan Kabupaten Lahat","wd":"Q109483377","lat":-3.796038143,"lng":103.534074968,"img":null,"wp":null},{"name":"Perpustakaan Madrasah Tsanawiyah Negeri 4 Mandailing Natal","wd":"Q135922458","lat":1.003300772,"lng":99.507944485,"img":null,"wp":null},{"name":"Perpustakaan Huta Puli","wd":"Q134426166","lat":1.067596948,"lng":99.468806181,"img":null,"wp":null},{"name":"Museum Benda-Benda Alkitab Yerushalayim","wd":"Q109434570","lat":-6.140442729,"lng":106.901868019,"img":null,"wp":"https:\/\/id.wikipedia.org\/wiki\/Museum_Benda-Benda_Alkitab_Yerushalayim"},{"name":"Gedong Kirtya","wd":"Q3100067","lat":-8.124837,"lng":115.096198,"img":"http:\/\/commons.wikimedia.org\/wiki\/Special:FilePath\/Gedong%20Kirtya%20museum%20exhibition%2016.jpg","wp":"https:\/\/id.wikipedia.org\/wiki\/Gedong_Kirtya"},{"name":"Museum Cenderawasih","wd":"Q109354638","lat":-1.177881137,"lng":136.087831615,"img":null,"wp":null},{"name":"Museum Pinawetengan","wd":"Q109381489","lat":1.187470826,"lng":124.794130048,"img":null,"wp":null},{"name":"Taman burung bali","wd":"Q16744229","lat":-8.6,"lng":115.251,"img":"http:\/\/commons.wikimedia.org\/wiki\/Special:FilePath\/Bali%20Bird%20Park.jpg","wp":"https:\/\/id.wikipedia.org\/wiki\/Taman_Burung_Bali"},{"name":"Perpustakaan Desa Suka Ramai","wd":"Q136298719","lat":0.920431899,"lng":99.522394703,"img":null,"wp":null},{"name":"Perpustakaan Sekolah Dasar Negeri165 Siantona","wd":"Q136035476","lat":0.736627734,"lng":99.587426475,"img":null,"wp":null},{"name":"Museum Fakultas Kedokteran Universitas Indonesia","wd":"Q109404795","lat":-6.194962002,"lng":106.849377753,"img":null,"wp":null},{"name":"Perpustakaan Desa Mukti Karya","wd":"Q117030936","lat":-3.116139,"lng":103.466502,"img":null,"wp":null},{"name":"Sekolah Tinggi Agama Islam Mau'izhah","wd":"Q117059549","lat":-1.264444444,"lng":103.146944444,"img":null,"wp":null},{"name":"Museum & Gallery Satwa Liar Dunia","wd":"Q97306877","lat":2.953685646,"lng":99.061110373,"img":null,"wp":"https:\/\/id.wikipedia.org\/wiki\/Museum_dan_Galeri_Satwa_Liar_Dunia"},{"name":"Perpustakaan Sekolah Menengah Atas Swasta Insan Madani","wd":"Q117285952","lat":3.456690315,"lng":97.059598248,"img":null,"wp":null},{"name":"Perpustakaan Politeknik Energi dan Pertambangan Bandung","wd":"Q121089959","lat":-6.9193252,"lng":107.5767839,"img":null,"wp":null},{"name":"Dinas Perpustakaan dan Kearsipan Daerah Provinsi Jawa Tengah","wd":"Q109668460","lat":-7.003242141,"lng":110.425198568,"img":null,"wp":null},{"name":"Perpustakaan Huta Tinggi","wd":"Q134461863","lat":0.699295993,"lng":99.598664798,"img":null,"wp":null},{"name":"Museum Brawijaya Malang","wd":"Q25578630","lat":-7.972094,"lng":112.621147,"img":"http:\/\/commons.wikimedia.org\/wiki\/Special:FilePath\/Museum%20Brawijaya%20Malang%20with%20Statue%20of%20Sudirman.jpg","wp":"https:\/\/id.wikipedia.org\/wiki\/Museum_Brawijaya"},{"name":"Perpustakaan Sekolah Menengah Pertama Negeri 2 Cisarua","wd":"Q116777042","lat":-6.777142007,"lng":107.520984348,"img":null,"wp":null},{"name":"Studio Kalahan","wd":"Q117289190","lat":-7.792641071,"lng":110.322805306,"img":null,"wp":null},{"name":"Perpustakaan Unit Pelayanan Teknis Daerah Puskesmas Panyabungan Jae","wd":"Q135987698","lat":0.863363613,"lng":99.550700504,"img":null,"wp":null},{"name":"Museum Collliq Pujie","wd":"Q115864216","lat":-4.414164537,"lng":119.619375636,"img":"http:\/\/commons.wikimedia.org\/wiki\/Special:FilePath\/Museum%20Colliq%20Pujie%20Barru%2002.jpg","wp":null},{"name":"Museum Pegadaian Sukabumi","wd":"Q115776590","lat":-6.9283147,"lng":106.9243546,"img":null,"wp":null},{"name":"Perpustakaan Kelurahan Baturaja Permai","wd":"Q117016471","lat":-4.166370589,"lng":104.197394567,"img":null,"wp":null},{"name":"Perpustakaan Sekolah Menengah Pertama Negeri 2 Maliku","wd":"Q117292398","lat":-3.039683137,"lng":114.202866432,"img":null,"wp":null},{"name":"Museum Putroe Phang","wd":"Q109308564","lat":5.546574215,"lng":95.318168371,"img":null,"wp":null},{"name":"Museum Rekor Dunia Indonesia","wd":"Q2469088","lat":-7.069166666,"lng":110.411111111,"img":null,"wp":"https:\/\/id.wikipedia.org\/wiki\/Museum_Rekor_Indonesia"},{"name":"Museum Paviliun 5","wd":"Q109433480","lat":-7.501055555,"lng":110.209805555,"img":null,"wp":"https:\/\/id.wikipedia.org\/wiki\/Museum_Paviliun_5"},{"name":"Museum Simettengpola Saoraja Mallangga","wd":"Q65203993","lat":-4.136767078,"lng":120.033212296,"img":"http:\/\/commons.wikimedia.org\/wiki\/Special:FilePath\/Museum%20Simettengpola%20Saoraja%20Mallangga%2001.jpg","wp":"https:\/\/id.wikipedia.org\/wiki\/Museum_Simettengpola_Saoraja_Mallangga"},{"name":"Sekolah Dasar Negeri 087 Panyabungan","wd":"Q136001170","lat":0.865479298,"lng":99.563341091,"img":null,"wp":null},{"name":"Perpustakaan Sekolah Dasar Negeri Batusirap","wd":"Q116777461","lat":-7.065211595,"lng":107.758547551,"img":null,"wp":null},{"name":"Perpustakaan Air Gading","wd":"Q117016790","lat":-4.133531657,"lng":104.173483109,"img":null,"wp":null},{"name":"Dinas Kearsipan dan Perpustakaan Kabupaten Jepara","wd":"Q109668965","lat":-6.599357495,"lng":110.663388339,"img":null,"wp":null},{"name":"Kampung Budaya Ngabang","wd":"Q130335920","lat":0.3848622,"lng":109.93148558,"img":"http:\/\/commons.wikimedia.org\/wiki\/Special:FilePath\/Kampung%20Budaya%20Ngabang.jpg","wp":null},{"name":"Museum Jamu Hortus Medicus","wd":"Q109437477","lat":-7.663478799,"lng":111.134468086,"img":null,"wp":"https:\/\/id.wikipedia.org\/wiki\/Museum_Jamu_Hortus_Medicus"},{"name":"Museum Benteng Vredeburg Yogyakarta","wd":"Q126126116","lat":-7.799463893,"lng":110.366035453,"img":"http:\/\/commons.wikimedia.org\/wiki\/Special:FilePath\/Fort%20Vredeburg%2C%20Yogyakarta%2C%20Indonesia.JPG","wp":null},{"name":"Museum Penanggulangan Terorisme \"Adhi Pradana\"","wd":"Q133309134","lat":-6.517266365,"lng":106.872528695,"img":null,"wp":null},{"name":"Perpustakaan Sekolah Dasar Negeri Gudangkopi 1","wd":"Q116777480","lat":-6.850276,"lng":107.92218,"img":null,"wp":null},{"name":"Museum Muhammadiyah","wd":"Q115863555","lat":-7.8346862,"lng":110.3837408,"img":null,"wp":null},{"name":"Dinas Perpustakaan dan Kearsipan Kabupaten Lima Puluh Kota","wd":"Q109421925","lat":-0.167557673,"lng":100.660679497,"img":null,"wp":null},{"name":"Galeri Tjong Yong Hian","wd":"Q134476231","lat":3.586421,"lng":98.669082,"img":null,"wp":null},{"name":"Perpustakaan Bintungan Bejangkar","wd":"Q133868743","lat":0.419781778,"lng":99.273940247,"img":null,"wp":null},{"name":"Taman Bacaan Masyarakat Rumah Baca Cibeunying","wd":"Q117289670","lat":-6.88836,"lng":107.62874,"img":null,"wp":null},{"name":"Perpustakaan Sekolah Menengah Pertama Negeri 3 Siabu","wd":"Q128615434","lat":1.00532096,"lng":99.50831711,"img":null,"wp":null},{"name":"Dinas Perpustakaan dan Kearsipan Kabupaten Situbondo","wd":"Q109702052","lat":-7.707527336,"lng":114.00505441,"img":null,"wp":null},{"name":"Dinas Perpustakaan dan Kearsipan Kota Batam","wd":"Q109466894","lat":1.125555601,"lng":104.05809733,"img":null,"wp":null},{"name":"Museum Kapal Samudera Raksa","wd":"Q127107587","lat":-7.604476731,"lng":110.203434257,"img":null,"wp":null},{"name":"Perpustakaan Barbaran","wd":"Q134426397","lat":0.854500796,"lng":99.525674369,"img":null,"wp":null},{"name":"Dinas Perpustakaan dan Kearsipan Kabupaten Sumenep","wd":"Q115398561","lat":-7.009779,"lng":113.858678,"img":null,"wp":null},{"name":"Dinas Perpustakaan dan Kearsipan Daerah Provinsi Jawa Barat","wd":"Q109640264","lat":-6.934239412,"lng":107.663267256,"img":null,"wp":null},{"name":"Museum Daerah Kabupaten Sumbawa","wd":"Q108940690","lat":-8.498717,"lng":117.423875,"img":null,"wp":"https:\/\/id.wikipedia.org\/wiki\/Museum_Daerah_Kabupaten_Sumbawa"},{"name":"Museum \"Waja Sampai Kaputing\"","wd":"Q3606131","lat":-3.30362,"lng":114.60907,"img":"http:\/\/commons.wikimedia.org\/wiki\/Special:FilePath\/Museum%20Waja%20Sampai%20Kaputing.jpg","wp":"https:\/\/id.wikipedia.org\/wiki\/Museum_Waja_Sampai_Kaputing"},{"name":"Taman Burung Taman Mini Indonesia Indah","wd":"Q109405120","lat":-6.300447442,"lng":106.904017761,"img":"http:\/\/commons.wikimedia.org\/wiki\/Special:FilePath\/Lesser%20adjutant%20TMII.jpg","wp":null},{"name":"Museum Cokelat Monggo","wd":"Q117309814","lat":-7.840561784,"lng":110.297907741,"img":null,"wp":null},{"name":"Perpustakaan Sekolah Menengah  Kejuruan Negeri 2  Panyabungan","wd":"Q135922488","lat":0.86213769,"lng":99.565665952,"img":null,"wp":null},{"name":"Museum Tosan Aji","wd":"Q97241097","lat":-7.71086,"lng":110.01,"img":"http:\/\/commons.wikimedia.org\/wiki\/Special:FilePath\/Inbound5362715310648609663.jpg","wp":"https:\/\/id.wikipedia.org\/wiki\/Museum_Tosan_Aji"},{"name":"Museum Seni Lukis Kontemporer Nyoman Gunarsa","wd":"Q2018178","lat":-7.774973082,"lng":110.395670694,"img":null,"wp":"https:\/\/id.wikipedia.org\/wiki\/Museum_Seni_Lukis_Kontemporer_Nyoman_Gunarsa"},{"name":"Benteng Rotterdam","wd":"Q29771","lat":-5.13439,"lng":119.40575,"img":"http:\/\/commons.wikimedia.org\/wiki\/Special:FilePath\/Fort%20Rotterdam%2C%20Makassar%2C%20Indonesia%20-%2020100227-02.jpg","wp":"https:\/\/id.wikipedia.org\/wiki\/Benteng_Rotterdam"},{"name":"Museum Pendidikan Dokter Surabaya","wd":"Q109433130","lat":-7.265222222,"lng":112.759777777,"img":null,"wp":"https:\/\/id.wikipedia.org\/wiki\/Museum_Pendidikan_Dokter_Surabaya"},{"name":"Museum Makam Uskup Gabriel Manek","wd":"Q108920430","lat":-8.324628459,"lng":123.007932141,"img":null,"wp":null},{"name":"Monumen Kapal Selam","wd":"Q19729370","lat":-7.26552,"lng":112.75027,"img":"http:\/\/commons.wikimedia.org\/wiki\/Special:FilePath\/Submarine%20Monument%20Surabaya%202.JPG","wp":"https:\/\/id.wikipedia.org\/wiki\/Monumen_Kapal_Selam"},{"name":"BIASA ArtSpace","wd":"Q109745102","lat":-8.474334561,"lng":115.172385874,"img":null,"wp":null},{"name":"Dinas Kearsipan dan Perpustakaan Kabupaten Klaten","wd":"Q109668743","lat":-7.700877704,"lng":110.603121999,"img":null,"wp":null},{"name":"Museum Batik Pekalongan","wd":"Q7161016","lat":-6.8786168,"lng":109.675473,"img":"http:\/\/commons.wikimedia.org\/wiki\/Special:FilePath\/Museum%20Batik.JPG","wp":"https:\/\/id.wikipedia.org\/wiki\/Museum_Batik_Pekalongan"},{"name":"Museum Listrik dan Energi Baru","wd":"Q12499646","lat":-6.303353,"lng":106.9049733,"img":null,"wp":"https:\/\/id.wikipedia.org\/wiki\/Museum_Listrik_dan_Energi_Baru"},{"name":"Dinas Perpustakaan dan Kearsipan Kabupaten Tebo","wd":"Q109483145","lat":-1.491025232,"lng":102.445494426,"img":null,"wp":null},{"name":"Dinas Kearsipan dan Perpustakan Kabupaten Kebumen","wd":"Q109668234","lat":-7.682881762,"lng":109.660676468,"img":null,"wp":null},{"name":"Perpustakaan Madrasah Tsanawiyah 11 Tasikmalaya","wd":"Q116777531","lat":-7.384519562,"lng":108.12522464,"img":null,"wp":null},{"name":"Museum Sultan Badarudin","wd":"Q86587352","lat":-5.401591721,"lng":105.236856621,"img":null,"wp":null},{"name":"Perpustakaan Darul Istiqamah Bongki","wd":"Q119547025","lat":-5.116777614,"lng":120.25,"img":null,"wp":null},{"name":"Museum Rajekwesi","wd":"Q108940499","lat":-7.16201,"lng":111.8725,"img":null,"wp":"https:\/\/id.wikipedia.org\/wiki\/Museum_Rajekwesi"},{"name":"Perpustakaan Sekolah Dasar Negeri 024 Simaninggir","wd":"Q135942969","lat":1.011582207,"lng":99.50433142,"img":null,"wp":null},{"name":"Museum Wallacea","wd":"Q109374466","lat":-4.004052409,"lng":122.52131287,"img":null,"wp":"https:\/\/id.wikipedia.org\/wiki\/Museum_Wallacea"},{"name":"Perpustakaan Kampung Baca Pengok","wd":"Q115156352","lat":-7.785824144,"lng":110.385759115,"img":null,"wp":null},{"name":"Perpustakaan Sekolah Menengah Kejuruan Pharmaca Medan","wd":"Q126896879","lat":3.601389279,"lng":98.649568495,"img":null,"wp":null},{"name":"Museum dan Galeri Seni Rudana","wd":"Q6940689","lat":-8.529638888,"lng":115.271277777,"img":"http:\/\/commons.wikimedia.org\/wiki\/Special:FilePath\/Museum%20Rudana%20in%20Ubud%2C%20Bali%2C%20Indonesia.jpg","wp":"https:\/\/id.wikipedia.org\/wiki\/Museum_dan_Galeri_Seni_Rudana"},{"name":"Perpustakaan Gunung Barani","wd":"Q135669047","lat":0.891411378,"lng":99.537932758,"img":null,"wp":null},{"name":"Balai Pelestarian Kebudayaan Wilayah III Provinsi Sumatera Barat","wd":"Q135874104","lat":-0.479289,"lng":100.623189,"img":null,"wp":null},{"name":"Museum Tuanku Imam Bonjol","wd":"Q59347826","lat":0.001388888,"lng":100.221166666,"img":"http:\/\/commons.wikimedia.org\/wiki\/Special:FilePath\/Museum%20Tuanku%20Imam%20Bonjol%2001.jpg","wp":"https:\/\/id.wikipedia.org\/wiki\/Museum_Tuanku_Imam_Bonjol"},{"name":"Perpustakaan Rumbio","wd":"Q134580153","lat":0.905055551,"lng":99.527098165,"img":null,"wp":null},{"name":"Perpustakaan Sekolah Dasar Negeri 03 Dosan","wd":"Q116890734","lat":0.942850446,"lng":102.088962122,"img":null,"wp":null},{"name":"Perpustakaan Angin Barat","wd":"Q134055129","lat":0.686805146,"lng":99.629499033,"img":null,"wp":null},{"name":"Perpustakaan Sekolah Menengah Pertama Negeri 2 Trumon Timur","wd":"Q117286011","lat":2.569148541,"lng":97.6590016,"img":null,"wp":null},{"name":"Museum Trinil","wd":"Q108940625","lat":-7.37434,"lng":111.35758,"img":"http:\/\/commons.wikimedia.org\/wiki\/Special:FilePath\/Patung%20Gajah%20di%20Museum%20Trinil%2C%20Ngawi.jpg","wp":"https:\/\/id.wikipedia.org\/wiki\/Museum_Trinil"},{"name":"Museum Bantul Masa Belanda","wd":"Q115863411","lat":-7.9189719,"lng":110.3183934,"img":null,"wp":null},{"name":"Monumen Puputan Klungkung","wd":"Q121218344","lat":-8.53487,"lng":115.40346,"img":"http:\/\/commons.wikimedia.org\/wiki\/Special:FilePath\/ID-bali-klungkung-monument.jpg","wp":null},{"name":"Museum Puro Mangkunegaran","wd":"Q109433508","lat":-7.566895965,"lng":110.822975204,"img":null,"wp":"https:\/\/id.wikipedia.org\/wiki\/Museum_Puro_Mangkunegaran"},{"name":"Perpustakaan Sekolah Menengah Pertama Negeri 3 Pasie Raja","wd":"Q117285988","lat":3.156627885,"lng":97.309216008,"img":null,"wp":null},{"name":"Perpustakaan Desa Duba Rubi Desa Sri Pengantin","wd":"Q117031762","lat":-3.062554,"lng":102.818667,"img":null,"wp":null},{"name":"Museum Gunungapi Merapi","wd":"Q1958032","lat":-7.6159272,"lng":110.4243329,"img":"http:\/\/commons.wikimedia.org\/wiki\/Special:FilePath\/Museum%20Gunungapi%20Merapi.jpg","wp":"https:\/\/id.wikipedia.org\/wiki\/Museum_Gunungapi_Merapi"},{"name":"Perpustakaan Sekolah Menengah Pertama Negeri 1 Panyabungan","wd":"Q135986828","lat":0.865401273,"lng":99.549769473,"img":null,"wp":null},{"name":"PEVITA (Perpustakaan Alternatif Wilayah Selatan Kota Yogyakarta)","wd":"Q115156331","lat":-7.813618085,"lng":110.364303164,"img":null,"wp":null},{"name":"Museum Transportasi","wd":"Q12499674","lat":-6.30466,"lng":106.89891,"img":"http:\/\/commons.wikimedia.org\/wiki\/Special:FilePath\/Museum%20Transportasi%20TMII%20-%20panoramio.jpg","wp":"https:\/\/id.wikipedia.org\/wiki\/Museum_Transportasi"},{"name":"Perpustakaan Desa Sukajaya","wd":"Q115862502","lat":-6.895825703,"lng":106.949975914,"img":null,"wp":null},{"name":"Museum Sekolah Slawi","wd":"Q109467149","lat":-6.83596159,"lng":109.546629188,"img":null,"wp":null},{"name":"Puspa IPTEK Sundial","wd":"Q109434806","lat":-6.851962994,"lng":107.494010742,"img":"http:\/\/commons.wikimedia.org\/wiki\/Special:FilePath\/Science%20Center%2C%20Puspa%20Iptek%2C%20Kota%20Baru%20Parahyangan%20-%20panoramio%20%281%29.jpg","wp":"https:\/\/id.wikipedia.org\/wiki\/Puspa_IPTEK_Sundial"},{"name":"Museum Puro Pakualaman","wd":"Q109050118","lat":-7.800545273,"lng":110.376212802,"img":null,"wp":null},{"name":"Museum Wayang","wd":"Q2854954","lat":-6.134872526,"lng":106.812442514,"img":"http:\/\/commons.wikimedia.org\/wiki\/Special:FilePath\/Museum%20Wayang%2C%20Jakarta%20%282025%29%20-%20img%2001.jpg","wp":"https:\/\/id.wikipedia.org\/wiki\/Museum_Wayang"},{"name":"Dinas Perpustakaan dan Kearsipan Kabupaten Aceh Timur","wd":"Q109381819","lat":4.810565618,"lng":97.896980268,"img":null,"wp":null},{"name":"Pusat Informasi Geopark Nasional Merangin","wd":"Q109434808","lat":-2.178590284,"lng":102.110927741,"img":"http:\/\/commons.wikimedia.org\/wiki\/Special:FilePath\/Geopark-merangin%201.png","wp":"https:\/\/id.wikipedia.org\/wiki\/Pusat_Informasi_Geopark_Merangin"},{"name":"Museum H. Widayat","wd":"Q97374374","lat":-7.59996,"lng":110.22307,"img":null,"wp":"https:\/\/id.wikipedia.org\/wiki\/Museum_H._Widayat"},{"name":"Galeri Nasional Indonesia","wd":"Q6972830","lat":-6.178525529,"lng":106.83277562,"img":"http:\/\/commons.wikimedia.org\/wiki\/Special:FilePath\/National%20Gallery%20of%20Indonesia.JPG","wp":"https:\/\/id.wikipedia.org\/wiki\/Galeri_Nasional_Indonesia"},{"name":"Museum Nyamuk","wd":"Q65203964","lat":-7.673768072,"lng":108.680200075,"img":null,"wp":"https:\/\/id.wikipedia.org\/wiki\/Museum_Nyamuk"},{"name":"Perpustakaan Roburan Lombang","wd":"Q134451346","lat":0.754733087,"lng":99.547086366,"img":null,"wp":null},{"name":"Museum Negeri Mpu Tantular","wd":"Q12499653","lat":-7.434,"lng":112.719916666,"img":"http:\/\/commons.wikimedia.org\/wiki\/Special:FilePath\/Museum%20Mpu%20Tantular.jpg","wp":"https:\/\/id.wikipedia.org\/wiki\/Museum_Negeri_Mpu_Tantular"},{"name":"Perpustakaan FMIPA Unpad","wd":"Q115862846","lat":-6.925499815,"lng":107.773306304,"img":null,"wp":null},{"name":"Siola","wd":"Q19734246","lat":-7.25875,"lng":112.738777777,"img":"http:\/\/commons.wikimedia.org\/wiki\/Special:FilePath\/Tunjungan%20Siola%20di%202022%20%28infobox%29.jpg","wp":"https:\/\/id.wikipedia.org\/wiki\/Siola"},{"name":"Museum Rumah Sakit Mata Dr. Yap","wd":"Q97374410","lat":-7.780715401,"lng":110.375046743,"img":"http:\/\/commons.wikimedia.org\/wiki\/Special:FilePath\/Museum%20Rumah%20Sakit%20Mata%20Dr.%20Yap%201.jpg","wp":"https:\/\/id.wikipedia.org\/wiki\/Museum_Rumah_Sakit_Mata_Dr._Yap"},{"name":"Perpustakaan Kecamatan Ciasem","wd":"Q116777496","lat":-6.33871611,"lng":107.607477552,"img":null,"wp":null},{"name":"Museum Nasional Indonesia","wd":"Q1467125","lat":-6.176111111,"lng":106.821666666,"img":"http:\/\/commons.wikimedia.org\/wiki\/Special:FilePath\/Front%20facade%20-%20National%20Museum%20Indonesia%2C%20Jakarta%20%282025%29%20-%20img%2007.jpg","wp":"https:\/\/id.wikipedia.org\/wiki\/Museum_Nasional_Indonesia"},{"name":"Perpustakaan Madrasah Aliyah Negeri 2 Pamekasan","wd":"Q124397099","lat":-7.160277777,"lng":113.4965,"img":null,"wp":null},{"name":"Dinas Perpustakaan dan Kearsipan Kabupaten Wonosobo","wd":"Q109668251","lat":-7.359530722,"lng":109.901775608,"img":null,"wp":null},{"name":"PUMA Museum","wd":"Q108940702","lat":-8.6085,"lng":115.2381,"img":null,"wp":null},{"name":"Museum Balla Lompoa","wd":"Q65203916","lat":-5.206618072,"lng":119.452776169,"img":"http:\/\/commons.wikimedia.org\/wiki\/Special:FilePath\/MuseumBallaLompoa.JPG","wp":"https:\/\/id.wikipedia.org\/wiki\/Museum_Balla%CA%BC_Lompoa"},{"name":"Museum Graha Widya Patra","wd":"Q109405160","lat":-6.301990095,"lng":106.90571578,"img":"http:\/\/commons.wikimedia.org\/wiki\/Special:FilePath\/Louisiana%20State%20Oil%20and%20Gas%20Museum%2C%20Oil%20City%2C%20LA%20IMG%205210.JPG","wp":"https:\/\/id.wikipedia.org\/wiki\/Museum_Minyak_dan_Gas_Bumi"},{"name":"Perpustakaan Sekolah Dasar Negeri Tegalkalong","wd":"Q116777607","lat":-6.848540644,"lng":107.927966302,"img":null,"wp":null},{"name":"Dinas Perpustakaan dan Arsip Kabupaten Rokan Hulu","wd":"Q109466864","lat":0.869710076,"lng":100.293649951,"img":null,"wp":null},{"name":"Museum Teuku Nyak Arief","wd":"Q109308502","lat":5.573150146,"lng":95.361615529,"img":null,"wp":null},{"name":"Perpustakaan Muara Botung","wd":"Q134055241","lat":0.643688903,"lng":99.810574343,"img":null,"wp":null},{"name":"Perpustakaan Sekolah Menengah Atas Swasta Pelita Nusantara","wd":"Q120953692","lat":3.355403847,"lng":97.92187921,"img":null,"wp":null},{"name":"Goa Jepang Kawangkoan","wd":"Q115496293","lat":1.213625768,"lng":124.788907802,"img":null,"wp":null},{"name":"Perpustakaan Institut Pertanian Bogor","wd":"Q109437839","lat":-6.558355096,"lng":106.726897954,"img":null,"wp":"https:\/\/id.wikipedia.org\/wiki\/Perpustakaan_Institut_Pertanian_Bogor"},{"name":"Museum Pemadam Kebakaran","wd":"Q121134005","lat":-6.299425717,"lng":106.898769224,"img":null,"wp":"https:\/\/id.wikipedia.org\/wiki\/Museum_Pemadam_Kebakaran"},{"name":"Perpustakaan Sekolah Menengah Pertama Negeri 3 Cibitung Satu Atap","wd":"Q116777495","lat":-6.22395,"lng":107.1139,"img":null,"wp":null},{"name":"Mini Linggam Cahaya","wd":"Q86586100","lat":-0.215888888,"lng":104.600861111,"img":null,"wp":null},{"name":"Perpustakaan Sekolah Dasar Negeri 1 Blang Gleum","wd":"Q121037110","lat":5,"lng":97,"img":null,"wp":null},{"name":"Museum Dr. Mohammad Saleh","wd":"Q109437482","lat":-7.7524557,"lng":113.2114794,"img":null,"wp":"https:\/\/id.wikipedia.org\/wiki\/Museum_Dr._Mohammad_Saleh"},{"name":"Perpustakaan Desa Aek Marian","wd":"Q136003849","lat":0.743929744,"lng":99.597325309,"img":null,"wp":null},{"name":"Rumah Pengasingan Bung Karno","wd":"Q16878966","lat":-3.799244708,"lng":102.261288776,"img":"http:\/\/commons.wikimedia.org\/wiki\/Special:FilePath\/Rumah%20Pengasingan%20Bung%20Karno%20di%20Kota%20Bengkulu.jpg","wp":"https:\/\/id.wikipedia.org\/wiki\/Rumah_Pengasingan_Bung_Karno"},{"name":"Museum PDAM Intan Banjar","wd":"Q108945359","lat":-3.4307,"lng":114.83976,"img":null,"wp":"https:\/\/id.wikipedia.org\/wiki\/Museum_PDAM_Intan_Banjar"},{"name":"Perpustakaan Sayur Maincat","wd":"Q133231838","lat":0.893641815,"lng":99.496504688,"img":null,"wp":null},{"name":"Museum Nuart Sculpture Park","wd":"Q117287770","lat":-6.876266,"lng":107.572001,"img":"http:\/\/commons.wikimedia.org\/wiki\/Special:FilePath\/Tampak%20Depan%20Museum%20Nuart%20Sculpture%20Park%202023-03-18.jpg","wp":null},{"name":"Museum Pedaratan Pesawat Ampibi","wd":"Q115840545","lat":0.551601177,"lng":122.994937352,"img":null,"wp":null},{"name":"Museum Musik Dunia","wd":"Q108940617","lat":-7.89572,"lng":112.55344,"img":null,"wp":"https:\/\/id.wikipedia.org\/wiki\/Museum_Musik_Dunia"},{"name":"Perpustakaan Gemar Membaca Sekolah Dasar Negeri 2 Biak Muli","wd":"Q120953471","lat":3.445989294,"lng":97.835050481,"img":null,"wp":null},{"name":"Museum Sadurengas","wd":"Q19899331","lat":-1.94808,"lng":116.211,"img":"http:\/\/commons.wikimedia.org\/wiki\/Special:FilePath\/Museum%20Sadurengas%20171224001.JPG","wp":"https:\/\/id.wikipedia.org\/wiki\/Museum_Sadurengas"},{"name":"Perpustakaan Manyabar Jae","wd":"Q134580164","lat":0.883877283,"lng":99.53866527,"img":null,"wp":null},{"name":"Museum Surabaya","wd":"Q109433481","lat":-7.256305555,"lng":112.737638888,"img":"http:\/\/commons.wikimedia.org\/wiki\/Special:FilePath\/Foto%20Museum%20Surabaya%20Siola.jpg","wp":"https:\/\/id.wikipedia.org\/wiki\/Museum_Surabaya"},{"name":"Museum Sudirman","wd":"Q126124827","lat":-7.46535649,"lng":110.219638884,"img":null,"wp":"https:\/\/id.wikipedia.org\/wiki\/Museum_Sudirman"},{"name":"Dinas Kearsipan dan Perpustakaan Kabupaten Pati","wd":"Q109669038","lat":-6.751090215,"lng":111.041025983,"img":null,"wp":null},{"name":"Museum Ne' Gandeng","wd":"Q97195150","lat":-2.928736401,"lng":119.949006339,"img":"http:\/\/commons.wikimedia.org\/wiki\/Special:FilePath\/Museum%20Ne%60Gandeng%20Toraja%2001.jpg","wp":"https:\/\/id.wikipedia.org\/wiki\/Museum_Ne%27_Gandeng"},{"name":"Dinas Perpustakaan dan Kearsipan Kabupaten Karanganyar","wd":"Q109668815","lat":-7.594437013,"lng":110.942043964,"img":null,"wp":null},{"name":"UPT Perpustakaan Universitas Balikpapan","wd":"Q115863778","lat":-1.265390931,"lng":116.867251171,"img":null,"wp":null},{"name":"Museum Si Pahit Lidah","wd":"Q109314041","lat":-4.068038405,"lng":103.926206365,"img":null,"wp":"https:\/\/id.wikipedia.org\/wiki\/Museum_Si_Pahit_Lidah"},{"name":"Seni 1 Museum Baru","wd":"Q109433482","lat":-6.14683565,"lng":106.840202636,"img":null,"wp":"https:\/\/id.wikipedia.org\/wiki\/Art:_1_New_Museum"},{"name":"3D Art Magic Eye Museum","wd":"Q115863935","lat":3.597367554,"lng":98.83150287,"img":null,"wp":null},{"name":"Perpustakaan Sarak Matua","wd":"Q134580226","lat":0.899232969,"lng":99.547311692,"img":null,"wp":null},{"name":"Perpustakaan Sekolah Dasar Negeri 156 Maga Lombang","wd":"Q135974857","lat":0.730897887,"lng":99.605567133,"img":null,"wp":null},{"name":"Kearsipan Universitas Negeri Semarang","wd":"Q109668523","lat":-7.049706514,"lng":110.392327193,"img":null,"wp":null},{"name":"Perpustakaan Umum Desa Tamanjaya","wd":"Q116777551","lat":-6.998649,"lng":107.321458,"img":null,"wp":null},{"name":"Museum Prof. Dr. R. Soegarda Poerbakawatja","wd":"Q97307648","lat":-7.38838,"lng":109.36302,"img":null,"wp":"https:\/\/id.wikipedia.org\/wiki\/Museum_Prof._Dr._R._Soegarda_Poerbakawatja"},{"name":"Museum Sasmita Loka","wd":"Q2454010","lat":-6.20458611,"lng":106.83656667,"img":"http:\/\/commons.wikimedia.org\/wiki\/Special:FilePath\/MuseumSasmitaLoka1.jpg","wp":"https:\/\/id.wikipedia.org\/wiki\/Museum_Sasmitaloka_Jenderal_Ahmad_Yani"},{"name":"Trupark Museum","wd":"Q115861441","lat":-6.7009252,"lng":108.5053546,"img":null,"wp":null},{"name":"Perpustakaan Sekolah Dasar Negeri 082 Aek Banir","wd":"Q135987366","lat":0.7719617,"lng":99.614451504,"img":null,"wp":null},{"name":"Museum Usman Janatin","wd":"Q109437094","lat":-7.4026159,"lng":109.3946518,"img":null,"wp":"https:\/\/id.wikipedia.org\/wiki\/Museum_Usman_Janatin"},{"name":"Museum d'Topeng","wd":"Q99448109","lat":-7.88371,"lng":112.52492,"img":null,"wp":"https:\/\/id.wikipedia.org\/wiki\/Indonesian_Heritage_Museum"},{"name":"Museum Dewantara Kirti Griya","wd":"Q12499637","lat":-7.80506,"lng":110.37819,"img":"http:\/\/commons.wikimedia.org\/wiki\/Special:FilePath\/Pendapa%20tamansiswa.jpg","wp":"https:\/\/id.wikipedia.org\/wiki\/Museum_Dewantara_Kirti_Griya"},{"name":"Perpustakaan Provinsi Sulawesi Selatan","wd":"Q113549557","lat":-5.182695148,"lng":119.440005494,"img":null,"wp":null},{"name":"Padepokan Seni Bagong Kussudiardja","wd":"Q13095597","lat":-7.830424723,"lng":110.332199797,"img":null,"wp":null},{"name":"Dinas Perpustakaan dan Kearsipan Kota Madiun","wd":"Q109680029","lat":-7.6322016,"lng":111.517551824,"img":null,"wp":null},{"name":"Perpustakaan Kubangan Tompek","wd":"Q133858159","lat":0.468973523,"lng":99.133692203,"img":null,"wp":null},{"name":"Perpustakaan Akademi Keperawatan Giri Satria Husada Wonogiri","wd":"Q121090057","lat":-7.805661,"lng":110.914478,"img":null,"wp":null},{"name":"Perpustakaan RBM","wd":"Q115861737","lat":-6.423254751,"lng":107.693031706,"img":null,"wp":null},{"name":"Perpustakaan Institut Bisnis Informasi Teknologi dan Bisnis","wd":"Q126678883","lat":3.553484568,"lng":98.66272235,"img":null,"wp":null},{"name":"Rumah Adat Bubungan Tinggi Habirau","wd":"Q133867218","lat":-2.633975587,"lng":115.095672046,"img":"http:\/\/commons.wikimedia.org\/wiki\/Special:FilePath\/Rumah%20Banjar%20Bubungan%20Tinggi%20Habirau.jpg","wp":null},{"name":"Dinas Kearsipan dan Perpustakaan Daerah Kabupaten Mamasa","wd":"Q109559805","lat":-2.945954918,"lng":119.370248397,"img":null,"wp":null},{"name":"Perpustakaan Sekolah Dasar Negeri 02 Penagan Ratu","wd":"Q116777550","lat":-4.7243861,"lng":104.3774037,"img":null,"wp":null},{"name":"Dinas Perpustakaan dan Kearsipan Kabupaten Batang Hari","wd":"Q109483164","lat":-1.709435879,"lng":103.257983668,"img":null,"wp":null},{"name":"Museum Tari dan Musik Nusantara","wd":"Q109434545","lat":-6.298923214,"lng":106.733527497,"img":null,"wp":"https:\/\/id.wikipedia.org\/wiki\/Museum_Tari_dan_Musik_Nusantara"},{"name":"Museum Monumen Pangeran Diponegoro Sasana Wiratama","wd":"Q12499654","lat":-7.78713,"lng":110.351395,"img":null,"wp":"https:\/\/id.wikipedia.org\/wiki\/Museum_Monumen_Pangeran_Diponegoro"},{"name":"Perpustakaan Desa Tangga Bosi","wd":"Q135923357","lat":0.990454145,"lng":99.499111499,"img":null,"wp":null},{"name":"Rahmat International Wildlife Museum & Gallery","wd":"Q18393164","lat":3.5792575,"lng":98.6677323,"img":"http:\/\/commons.wikimedia.org\/wiki\/Special:FilePath\/Rahmat%20Gallery%20-%20panoramio.jpg","wp":"https:\/\/id.wikipedia.org\/wiki\/Rahmat_International_Wildlife_Museum_and_Gallery"},{"name":"Museum Fotografi Kediri","wd":"Q115862665","lat":-7.8474348,"lng":112.0282905,"img":null,"wp":null},{"name":"Perpustakaan Desa Bumi Agung","wd":"Q117031734","lat":-3.245493,"lng":103.039376,"img":null,"wp":null},{"name":"Perpustakaan Kelurahan Siabu","wd":"Q135942863","lat":1.016240653,"lng":99.493069886,"img":null,"wp":null},{"name":"Perpustakaan Sekolah Menengah Pertama Negeri1 Bukit Malintang","wd":"Q135979064","lat":0.969226337,"lng":99.518202549,"img":null,"wp":null},{"name":"Museum Semarajaya","wd":"Q14475767","lat":-8.535527777,"lng":115.402666666,"img":"http:\/\/commons.wikimedia.org\/wiki\/Special:FilePath\/ID-bali-klungkung-mus-semarajaya.jpg","wp":"https:\/\/id.wikipedia.org\/wiki\/Museum_Semarajaya"},{"name":"Museum Sultan Syarif Kasim","wd":"Q65203996","lat":1.476670325,"lng":102.103245754,"img":null,"wp":"https:\/\/id.wikipedia.org\/wiki\/Museum_Sultan_Syarif_Kasim"},{"name":"Museum Fakultas Hukum Universitas Indonesia","wd":"Q109437483","lat":-6.36473,"lng":106.83149,"img":null,"wp":"https:\/\/id.wikipedia.org\/wiki\/Museum_Fakultas_Hukum_Universitas_Indonesia"},{"name":"Museum Perjuangan (Kodam VII Wirabuana)","wd":"Q108940293","lat":1.463944444,"lng":124.831277777,"img":null,"wp":"https:\/\/id.wikipedia.org\/wiki\/Museum_Perjuangan_(Kodam_XIII\/Merdeka)"},{"name":"Perpustakaan Madrasah Ibtidaiyah Negeri 1 Mandailing Natal","wd":"Q136088485","lat":0.639082053,"lng":99.275856294,"img":null,"wp":null},{"name":"Museum Asmat","wd":"Q12499630","lat":-6.305708406,"lng":106.893681231,"img":"http:\/\/commons.wikimedia.org\/wiki\/Special:FilePath\/Museum%20Asmat%2C%20Taman%20Mini%20Indonesia%20Indah%20%2801%29.jpg","wp":"https:\/\/id.wikipedia.org\/wiki\/Museum_Asmat"},{"name":"Dinas Kearsipan dan Perpustakaan Kabupaten Subang","wd":"Q109640297","lat":-6.571604157,"lng":107.762457354,"img":null,"wp":null},{"name":"Q30672224","wd":"Q30672224","lat":-8.480232,"lng":115.131563,"img":null,"wp":null},{"name":"The Heritage Palace","wd":"Q115804351","lat":-7.5547544,"lng":110.7526316,"img":null,"wp":null},{"name":"Dinas Perpustakaan dan Kearsipan Kota Banda Aceh","wd":"Q109381689","lat":5.557860581,"lng":95.332444353,"img":null,"wp":null},{"name":"Museum Kambang Putih","wd":"Q97307642","lat":-6.89607,"lng":112.06433,"img":null,"wp":"https:\/\/id.wikipedia.org\/wiki\/Museum_Kambang_Putih"},{"name":"Museum Perjuangan Pers Sumatera Utara","wd":"Q115861089","lat":3.585810245,"lng":98.652184012,"img":null,"wp":"https:\/\/id.wikipedia.org\/wiki\/Museum_Perjuangan_Pers_Sumatera_Utara"},{"name":"Museum Topeng Sewu Rai","wd":"Q115863115","lat":-7.8578844,"lng":111.053233,"img":null,"wp":null},{"name":"Perpustakaan Sekolah Menengah Atas Negeri 2 Meukek","wd":"Q117285954","lat":3.471698306,"lng":97.056123123,"img":null,"wp":null},{"name":"Perpustakaan Sekolah Dasar Negeri 158 Batu Godang","wd":"Q135974843","lat":0.747676402,"lng":99.591512262,"img":null,"wp":null},{"name":"Museum Kotagede","wd":"Q117305673","lat":-7.82636109,"lng":110.392037729,"img":null,"wp":null},{"name":"Dinas Perpustakaan dan Kearsipan Kabupaten Nagan Raya","wd":"Q109381836","lat":4.15241476,"lng":96.324819626,"img":null,"wp":null},{"name":"Paseban Tri Panca Tunggal","wd":"Q99161496","lat":-6.969268,"lng":108.456667,"img":null,"wp":null},{"name":"Perpustakaan Saba Padang","wd":"Q133189363","lat":0.836014819,"lng":99.564414832,"img":null,"wp":null},{"name":"Museum Keris Nusantara","wd":"Q61356674","lat":-7.56881,"lng":110.81085,"img":"http:\/\/commons.wikimedia.org\/wiki\/Special:FilePath\/Museumkerisnusantara%202.jpg","wp":"https:\/\/id.wikipedia.org\/wiki\/Museum_Keris_Nusantara"},{"name":"Museum Jenderal M Jusuf","wd":"Q131757594","lat":-5.150326724,"lng":119.409966702,"img":"http:\/\/commons.wikimedia.org\/wiki\/Special:FilePath\/Museum%20Jendral%20M.%20Jusuf.jpg","wp":"https:\/\/id.wikipedia.org\/wiki\/Museum_Jenderal_M._Jusuf"},{"name":"Museum Tambang Batubara Ombilin","wd":"Q71662616","lat":-0.679888888,"lng":100.777555555,"img":"http:\/\/commons.wikimedia.org\/wiki\/Special:FilePath\/Museum%20Tambang%20Batu%20Bara%20Ombilin.jpg","wp":"https:\/\/id.wikipedia.org\/wiki\/Museum_Tambang_Batubara_Ombilin"},{"name":"Museum Monumen Yogya Kembali","wd":"Q12499652","lat":-7.749577,"lng":110.369599,"img":"http:\/\/commons.wikimedia.org\/wiki\/Special:FilePath\/Monumen%20Yogya%20Kembali.JPG","wp":"https:\/\/id.wikipedia.org\/wiki\/Museum_Monumen_Yogya_Kembali"},{"name":"Perpustakaan Sekolah Dasar Swasta 117 Islam Terpadu Adnani","wd":"Q136378411","lat":0.857529186,"lng":99.557900675,"img":null,"wp":null},{"name":"Dinas Perpustakaan dan Arsip Kabupaten Siak","wd":"Q109466873","lat":0.810003174,"lng":102.034126654,"img":null,"wp":null},{"name":"Dinas Perpustakaan dan Kearsipan Kota Padang","wd":"Q109422055","lat":-0.947698169,"lng":100.362574985,"img":null,"wp":null},{"name":"Museum Memorial Kedaton Sultan Ternate","wd":"Q97307644","lat":0.80054,"lng":127.38405,"img":"http:\/\/commons.wikimedia.org\/wiki\/Special:FilePath\/COLLECTIE%20TROPENMUSEUM%20Het%20Museum%20Kedaton%20voormalige%20paleis%20van%20de%20sultan%20van%20Ternate%20TMnr%2010016840.jpg","wp":"https:\/\/id.wikipedia.org\/wiki\/Museum_Memorial_Kedaton_Sultan_Ternate"},{"name":"Perpustakaan Pendidikan Anak Usia Dini Raisa","wd":"Q136088511","lat":0.577938033,"lng":99.139444728,"img":null,"wp":null},{"name":"Museum Arkeologi Cipari","wd":"Q109466705","lat":-6.961585103,"lng":108.468158578,"img":null,"wp":null},{"name":"Perpustakaan Sekolah Dasar Negeri 1 Giritirto","wd":"Q121067512","lat":-7.821437484,"lng":110.921849912,"img":null,"wp":null},{"name":"Perpustakaan SD Al Musabbihin","wd":"Q126894718","lat":3.568705784,"lng":98.638533798,"img":null,"wp":null},{"name":"Perpustakaan Sekolah Dasar Negeri 17 Kapencong","wd":"Q116890825","lat":-1.34510226,"lng":100.581619268,"img":null,"wp":null},{"name":"Museum Pendidikan","wd":"Q108940677","lat":-8.02751,"lng":112.64868,"img":null,"wp":null},{"name":"UPTD Taman Budaya dan Museum Sulawesi Utara","wd":"Q127164841","lat":3.322421846,"lng":124.991709231,"img":null,"wp":null},{"name":"Museum Taman Prasasti","wd":"Q4264481","lat":-6.172192095,"lng":106.81897352,"img":"http:\/\/commons.wikimedia.org\/wiki\/Special:FilePath\/Tamanprasasti.jpg","wp":"https:\/\/id.wikipedia.org\/wiki\/Museum_Taman_Prasasti"},{"name":"Perpustakaan Umum Daerah Kabupaten Manokwari","wd":"Q131190870","lat":-0.854505,"lng":134.06886,"img":null,"wp":null},{"name":"Perpustakaan Sibinail","wd":"Q133928526","lat":0.653413806,"lng":99.896236097,"img":null,"wp":null},{"name":"Rumah Bersejarah Markas Gerilya Panglima Besar Jenderal Sudirman","wd":"Q126120119","lat":-7.938888888,"lng":111.181444444,"img":null,"wp":null},{"name":"Dinas Perpustakaan dan Kearsipan Kabupaten Pidie","wd":"Q109381790","lat":5.314215991,"lng":95.989966454,"img":null,"wp":null},{"name":"Perpustakaan Madrasah Aliyah  Pondok Pesantren Darul Ikhlash","wd":"Q135986713","lat":0.820855296,"lng":99.565181421,"img":null,"wp":null},{"name":"Museum Situs Batujaya","wd":"Q61356762","lat":-6.056559991,"lng":107.157903615,"img":null,"wp":"https:\/\/id.wikipedia.org\/wiki\/Museum_Situs_Batujaya"},{"name":"Museum Affandi","wd":"Q4688864","lat":-7.7827,"lng":110.3963,"img":"http:\/\/commons.wikimedia.org\/wiki\/Special:FilePath\/Barang%20koleksi%20berupa%20mobil%20dan%20sepeda%20onthel%20yang%20terpajang%20di%20dalam%20Galeri%20I%20Museum%20Affandi.jpg","wp":"https:\/\/id.wikipedia.org\/wiki\/Museum_Affandi"},{"name":"Perpustakaan Al-Masthuriyah","wd":"Q115862591","lat":-6.905481078,"lng":106.870731229,"img":null,"wp":null},{"name":"Museum Keraton Sumenep","wd":"Q108940621","lat":-7.00828,"lng":113.86235,"img":"http:\/\/commons.wikimedia.org\/wiki\/Special:FilePath\/Musium%20sumenep%20-%20panoramio.jpg","wp":"https:\/\/id.wikipedia.org\/wiki\/Museum_Keraton_Sumenep"},{"name":"Dinas Kearsipan dan Perpustakaan Kabupaten Purworejo","wd":"Q109668265","lat":-7.712253811,"lng":110.002485539,"img":null,"wp":null},{"name":"Dinas Perpustakaan dan Kearsipan Kota Langsa","wd":"Q109381823","lat":4.471266957,"lng":97.96408071,"img":null,"wp":null},{"name":"Perpustakaan Sekolah  Dasar Negeri 080 Panyambungan","wd":"Q136292658","lat":0.862066948,"lng":99.56717592,"img":null,"wp":null},{"name":"Museum Indonesia","wd":"Q1467232","lat":-6.3010573,"lng":106.8914443,"img":"http:\/\/commons.wikimedia.org\/wiki\/Special:FilePath\/Indonesia%20Museum%20Balinese%20Split%20Gate.jpg","wp":"https:\/\/id.wikipedia.org\/wiki\/Museum_Indonesia"},{"name":"Museum Colliq Pujie","wd":"Q136328239","lat":-4.414143143,"lng":119.619515112,"img":"http:\/\/commons.wikimedia.org\/wiki\/Special:FilePath\/Museum%20Colliq%20Pujie%20Barru%2002.jpg","wp":"https:\/\/id.wikipedia.org\/wiki\/Museum_Colliq_Pujie"},{"name":"Perpustakaan Sekolah  Tinggi Agama Islam Negeri Mandailing Natal  (STAIN MADINA)","wd":"Q136399151","lat":0.830374271,"lng":99.547698764,"img":null,"wp":null},{"name":"Candi Agung","wd":"Q2936250","lat":-2.414207,"lng":115.248318,"img":"http:\/\/commons.wikimedia.org\/wiki\/Special:FilePath\/Candi%20Agung.jpg","wp":"https:\/\/id.wikipedia.org\/wiki\/Candi_Agung"},{"name":"De Tjolomadoe","wd":"Q81199133","lat":-7.53438,"lng":110.74992,"img":"http:\/\/commons.wikimedia.org\/wiki\/Special:FilePath\/Pabrik%20Gula%20Colomadu.jpg","wp":"https:\/\/id.wikipedia.org\/wiki\/De_Tjolomadoe"},{"name":"Museum Pembela Tanah Air","wd":"Q16798568","lat":-6.582809,"lng":106.796351,"img":"http:\/\/commons.wikimedia.org\/wiki\/Special:FilePath\/PETA%20Museum%20entrance%20gate%20from%20the%20side%20of%20the%20road.jpg","wp":"https:\/\/id.wikipedia.org\/wiki\/Museum_Pembela_Tanah_Air"},{"name":"Museum Rumah Kelahiran Bagindo Aziz Chan","wd":"Q71661156","lat":-0.955916666,"lng":100.364277777,"img":"http:\/\/commons.wikimedia.org\/wiki\/Special:FilePath\/Rumah%20Kelahiran%20Bagindo%20Azizchan.jpg","wp":"https:\/\/id.wikipedia.org\/wiki\/Museum_Rumah_Kelahiran_Bagindo_Aziz_Chan"},{"name":"Museum Bank Indonesia","wd":"Q2521269","lat":-6.13733,"lng":106.813,"img":"http:\/\/commons.wikimedia.org\/wiki\/Special:FilePath\/Bank%20Indonesia%20Museum%20-%20Jakarta%20%282025%29%20-%20img%2002.jpg","wp":"https:\/\/id.wikipedia.org\/wiki\/Museum_Bank_Indonesia"},{"name":"Taman Bacaan Masyarakat Al-Iman","wd":"Q135746999","lat":0.960201346,"lng":99.525944272,"img":null,"wp":null},{"name":"Andi\u2019s Gallery","wd":"Q109622122","lat":-6.177396287,"lng":106.817667828,"img":null,"wp":null},{"name":"PERPUSTAKAAN ANGGREK SEKOLAH DASAR NEGERI 23 LUBUKLINGGAU","wd":"Q121067399","lat":-3.290372966,"lng":102.861032544,"img":null,"wp":null},{"name":"Museum Tri Daya Eka Dharma","wd":"Q12499676","lat":-0.307138888,"lng":100.366138888,"img":"http:\/\/commons.wikimedia.org\/wiki\/Special:FilePath\/Tri%20Daya%20Eka%20Dharma%20Museum.jpg","wp":"https:\/\/id.wikipedia.org\/wiki\/Museum_Perjuangan_Tridaya_Eka_Dharma"},{"name":"Dinas Kearsipan dan Perpustakaan Kabupaten Bandung Barat","wd":"Q109640125","lat":-6.842605706,"lng":107.510639997,"img":null,"wp":null},{"name":"Perpustakaan Universitas Sriwijaya","wd":"Q109483346","lat":-2.98604118,"lng":104.732259736,"img":null,"wp":null},{"name":"Dinas Kearsipan dan Perpustakaan Kabupaten Bangka","wd":"Q109484043","lat":-1.869503251,"lng":106.116020668,"img":null,"wp":null},{"name":"Museum Negeri Aceh","wd":"Q8465860","lat":5.548581,"lng":95.320642,"img":"http:\/\/commons.wikimedia.org\/wiki\/Special:FilePath\/Museum%20Aceh.JPG","wp":"https:\/\/id.wikipedia.org\/wiki\/Museum_Aceh"},{"name":"Perpustakaan SMART Sekolah Menengah Pertama Negeri 2 Siabu","wd":"Q136399070","lat":1.099083164,"lng":99.452828779,"img":null,"wp":null},{"name":"Museum Mahkota Dipuncak Nur","wd":"Q108933254","lat":-5.368032604,"lng":105.266394622,"img":null,"wp":"https:\/\/id.wikipedia.org\/wiki\/Museum_Mahkota_Dipuncak_Nur"},{"name":"Museum Polrestabes Surabaya","wd":"Q109437464","lat":-7.238445979,"lng":112.736649267,"img":null,"wp":"https:\/\/id.wikipedia.org\/wiki\/Museum_Polrestabes_Surabaya"},{"name":"Pusat Sejarah Tentara Nasional Indonesia","wd":"Q25470077","lat":-6.231348872,"lng":106.820148973,"img":null,"wp":"https:\/\/id.wikipedia.org\/wiki\/Pusat_Sejarah_Tentara_Nasional_Indonesia"},{"name":"Perpustakaan Akademi Farmasi 17 Agustus 1945 Semarang","wd":"Q121089923","lat":-6.983356655,"lng":110.3,"img":null,"wp":null},{"name":"Wahanarata","wd":"Q109483663","lat":-7.805487186,"lng":110.362829945,"img":"http:\/\/commons.wikimedia.org\/wiki\/Special:FilePath\/Museum%20Kareta%20Karaton.jpg","wp":"https:\/\/id.wikipedia.org\/wiki\/Museum_Wahanarata"},{"name":"Perpustakaan Sekolah Menengah Pertama Negeri 2 Kotabumi","wd":"Q116777568","lat":-4.7229048,"lng":104.3774007,"img":null,"wp":null},{"name":"Museum Satriamandala","wd":"Q7426467","lat":-6.2317,"lng":106.81854,"img":"http:\/\/commons.wikimedia.org\/wiki\/Special:FilePath\/Plaza%20Satriamandala.01.jpg","wp":"https:\/\/id.wikipedia.org\/wiki\/Museum_Satria_Mandala"},{"name":"Pa' Dior Pinawetengan. Pusat Seni & Budaya Minahasa","wd":"Q115494853","lat":1.183195617,"lng":124.792591217,"img":null,"wp":null},{"name":"Kearsipan Universitas Airlangga","wd":"Q109680411","lat":-7.271977274,"lng":112.758564019,"img":null,"wp":null},{"name":"History of Java Museum","wd":"Q99450344","lat":-7.843888888,"lng":110.36225,"img":"http:\/\/commons.wikimedia.org\/wiki\/Special:FilePath\/History%20of%20Java%20Museum.jpg","wp":"https:\/\/id.wikipedia.org\/wiki\/History_of_Java_Museum"},{"name":"Perpustakaan Madrasah Ibtidaiyah Nurul Iman","wd":"Q116778265","lat":-6.903985821,"lng":107.538143497,"img":null,"wp":null},{"name":"Perpustakaan Ponpes Roihanul Jannah","wd":"Q136035495","lat":0.734776214,"lng":99.600298749,"img":null,"wp":null},{"name":"Museum Wayang Indonesia","wd":"Q12499677","lat":-7.907222222,"lng":110.865277777,"img":null,"wp":"https:\/\/id.wikipedia.org\/wiki\/Museum_Wayang_Indonesia"},{"name":"Maltaaaf Studio","wd":"Q115864546","lat":-6.916455531,"lng":106.922195829,"img":null,"wp":null},{"name":"Perpustakaan Sekolah Menengah Atas Muhammadiyah Wanaraja","wd":"Q116777681","lat":-7.187353695,"lng":108.012792709,"img":null,"wp":null},{"name":"Perpustakaan Islam Masjid Agung Palembang","wd":"Q115862782","lat":-2.98813583,"lng":104.760347493,"img":null,"wp":null},{"name":"Taman Bacaan Masyarakat Sukamulya Cerdas","wd":"Q117289752","lat":-6.91603,"lng":107.69998,"img":null,"wp":null},{"name":"Perpustakaan Desa Kebondanas","wd":"Q116777737","lat":-6.291597,"lng":107.894593,"img":null,"wp":null},{"name":"Perpustakaan Salam Bue","wd":"Q134580094","lat":0.849682013,"lng":99.581529202,"img":null,"wp":null},{"name":"Etalase Geopark Gunungsewu","wd":"Q109433500","lat":-8.221388888,"lng":111.097222222,"img":null,"wp":"https:\/\/id.wikipedia.org\/wiki\/Etalase_Geopark_Gunungsewu"},{"name":"Museum Subkoss Garuda Sriwijaya","wd":"Q108940291","lat":-3.2957,"lng":102.86055,"img":"http:\/\/commons.wikimedia.org\/wiki\/Special:FilePath\/Monumen%20Perjuangan%20Subkoss%20Garuda%20Sriwijaya.jpg","wp":"https:\/\/id.wikipedia.org\/wiki\/Museum_Subkoss_Garuda_Sriwijaya"},{"name":"Dinas Arsip dan Perpustakaan Kota Semarang","wd":"Q109668409","lat":-6.982828983,"lng":110.410013354,"img":null,"wp":null},{"name":"Kebun Binatang Pematang Siantar","wd":"Q12490160","lat":2.9526171,"lng":99.0588213,"img":"http:\/\/commons.wikimedia.org\/wiki\/Special:FilePath\/Taman%20Hewan%20Pematang%20Siantar%20%282%29.JPG","wp":"https:\/\/id.wikipedia.org\/wiki\/Kebun_Binatang_Pematang_Siantar"},{"name":"Perpustakaan Madrasah Tsanawiyah GUPPI Simaninggir","wd":"Q126689168","lat":1.015825907,"lng":99.505508117,"img":null,"wp":null},{"name":"Dinas Perpustakaan Kota Sibolga","wd":"Q109375305","lat":1.740281757,"lng":98.776646454,"img":null,"wp":null},{"name":"Perpustakaan Umum","wd":"Q115148997","lat":-0.31513,"lng":100.37031,"img":"http:\/\/commons.wikimedia.org\/wiki\/Special:FilePath\/Perpustakaan%20Umum.jpg","wp":null},{"name":"Museum Satwa","wd":"Q12499668","lat":-7.888733741,"lng":112.529557323,"img":"http:\/\/commons.wikimedia.org\/wiki\/Special:FilePath\/Museum%20Satwa%20Jatim%20Park%202%202017-09-18.jpg","wp":"https:\/\/id.wikipedia.org\/wiki\/Museum_Satwa"},{"name":"Dinas Komunikasi Informatika Kearsipan dan Perpustakaan Kota Cimahi","wd":"Q109640179","lat":-6.870498981,"lng":107.555059997,"img":null,"wp":null},{"name":"Perpustakaan Sekolah Menengah Pertama Negeri Idi Cut","wd":"Q121037014","lat":4.963834726,"lng":97.754973983,"img":null,"wp":null},{"name":"Perpustakaan Koto Baringin","wd":"Q133928897","lat":0.61406188,"lng":99.860480183,"img":null,"wp":null},{"name":"Dinas Perpustakaan dan Kearsipan Daerah Kabupaten Dharmasraya","wd":"Q109422070","lat":-0.968882671,"lng":101.511470581,"img":null,"wp":null},{"name":"Museum Pusat TNI Angkatan Laut Jalesveva Jayamahe","wd":"Q127104044","lat":-7.221610278,"lng":112.740182757,"img":null,"wp":null},{"name":"Perpustakaan Tanjung Mompang","wd":"Q134461883","lat":0.932281228,"lng":99.550252389,"img":null,"wp":null},{"name":"Dinas Perpustakaan Kota Binjai","wd":"Q109375195","lat":3.595321728,"lng":98.487836683,"img":null,"wp":null},{"name":"Perpustakaan Desa Pasar Laru","wd":"Q135917936","lat":0.722557446,"lng":99.637242927,"img":null,"wp":null},{"name":"Dinas Perpustakaan dan Kearsipan Kabupaten Cilacap","wd":"Q109658322","lat":-7.724352117,"lng":109.009016455,"img":null,"wp":null},{"name":"Museum UNS Jawa Tengah","wd":"Q108946235","lat":-7.556775694,"lng":110.859766952,"img":null,"wp":"https:\/\/id.wikipedia.org\/wiki\/Museum_UNS"},{"name":"Perpustakaan Madrasah Tsanawiyah Attabiin","wd":"Q116777644","lat":-7.492857236,"lng":108.271858496,"img":null,"wp":null},{"name":"Dinas Perpustakaan dan Kearsipan Kabupaten Kabupaten Muara Enim","wd":"Q109483371","lat":-3.657070683,"lng":103.76754471,"img":null,"wp":null},{"name":"Perpustakaan Sekolah Dasar Negeri 1 Gesik","wd":"Q116777030","lat":-6.708669449,"lng":108.518990868,"img":null,"wp":null},{"name":"Museum Gumuk Pasir","wd":"Q97374369","lat":-8.009245172,"lng":110.302156307,"img":null,"wp":"https:\/\/id.wikipedia.org\/wiki\/Museum_Gumuk_Pasir"},{"name":"Perpustakaan Desa Tambangan Jae","wd":"Q135746808","lat":0.734168312,"lng":99.647712557,"img":null,"wp":null},{"name":"Museum Bio Farma","wd":"Q108940162","lat":-6.89935,"lng":107.59999,"img":null,"wp":"https:\/\/id.wikipedia.org\/wiki\/Museum_Bio_Farma"},{"name":"Perpustakaan SMP Al-hikmah","wd":"Q126678847","lat":3.706180401,"lng":98.653099108,"img":null,"wp":null},{"name":"Perpustakaan Sekolah Dasar Negeri 035 Pintu Padang Jae","wd":"Q135978756","lat":0.968074446,"lng":99.520335366,"img":null,"wp":null},{"name":"NuArt Sculpture Park","wd":"Q28725215","lat":-6.877561528,"lng":107.572588707,"img":null,"wp":"https:\/\/id.wikipedia.org\/wiki\/NuArt_Sculpture_Park"},{"name":"Perpustakaan Madrasah Aliyah Negeri I Madina","wd":"Q135922624","lat":0.808007845,"lng":99.572207698,"img":null,"wp":null},{"name":"Istana Al Mukarramah","wd":"Q25470063","lat":0.08215323,"lng":111.490229559,"img":"http:\/\/commons.wikimedia.org\/wiki\/Special:FilePath\/Istana%20Al%20Mukarramah%20Kesultanan%20Sintang%2005.jpg","wp":"https:\/\/id.wikipedia.org\/wiki\/Museum_Dara_Juanti"},{"name":"Rumah Budaya Banda Neira","wd":"Q109354656","lat":-4.525643687,"lng":129.897464857,"img":"http:\/\/commons.wikimedia.org\/wiki\/Special:FilePath\/Rumah%20Budaya%20Banda.jpg","wp":null},{"name":"Museum Mini PLTA Tonsealama","wd":"Q109381506","lat":1.335843724,"lng":124.922589817,"img":null,"wp":null},{"name":"Perpustakaan Sari Ilmu Desa Bangun Sari Kecamatan Gunung Megang","wd":"Q119548406","lat":-3.438903987,"lng":103.962587754,"img":null,"wp":null},{"name":"Lawangwangi Creative Space","wd":"Q136434791","lat":-6.847615223,"lng":107.627671971,"img":null,"wp":null},{"name":"Perpustakaan SMA Yos Sudarso","wd":"Q126721567","lat":3.62508018,"lng":98.669543967,"img":null,"wp":null},{"name":"Museum Dewan Perwakilan Rakyat Republik Indonesia","wd":"Q108958446","lat":-6.210202713,"lng":106.799773526,"img":"http:\/\/commons.wikimedia.org\/wiki\/Special:FilePath\/MuseumDPRRI.jpg","wp":"https:\/\/id.wikipedia.org\/wiki\/Museum_DPR_RI"},{"name":"Perpustakaan Kelurahan Senalang","wd":"Q117030887","lat":-3.284146897,"lng":102.876018004,"img":null,"wp":null},{"name":"Perpustakaan Univesitas Hasyim Asy'ari","wd":"Q115857476","lat":-7.6100327,"lng":112.2360354,"img":null,"wp":null},{"name":"Dinas Perpustakaan Dan Kearsipan Kabupaten Ponorogo","wd":"Q109679993","lat":-7.86491691,"lng":111.453465783,"img":null,"wp":null},{"name":"Museum Seni Lukis Klasik Bali","wd":"Q65203981","lat":-8.552213591,"lng":115.386776494,"img":null,"wp":"https:\/\/id.wikipedia.org\/wiki\/Museum_Seni_Lukis_Klasik_Bali"},{"name":"Dinas Kearsipan dan Perpustakaan Kota Palu","wd":"Q109547605","lat":-0.931425505,"lng":119.88682861,"img":null,"wp":null},{"name":"Museum Latta Mahosadhi","wd":"Q126163701","lat":-8.656944444,"lng":115.232083333,"img":null,"wp":null},{"name":"Dinas Perpustakaan dan Kearsipan Kabupaten Bandung","wd":"Q109640145","lat":-7.024039911,"lng":107.528241454,"img":null,"wp":null},{"name":"Museum Pasifika","wd":"Q6940675","lat":-8.8,"lng":115.2306,"img":"http:\/\/commons.wikimedia.org\/wiki\/Special:FilePath\/Museum%20Pasifika.jpg","wp":"https:\/\/id.wikipedia.org\/wiki\/Museum_Pasifika"},{"name":"Museum Graha Bhakti Antara","wd":"Q19745846","lat":-6.16581,"lng":106.8339,"img":null,"wp":"https:\/\/id.wikipedia.org\/wiki\/Graha_Bhakti_Antara"},{"name":"Perpustakaan SD negeri 062 Mompang Jae","wd":"Q136522466","lat":0.911090559,"lng":99.533572964,"img":null,"wp":null},{"name":"Perpustakaan Bonda Kase","wd":"Q133858056","lat":0.652858707,"lng":99.163048795,"img":null,"wp":null},{"name":"Museum Panglima Besar Jenderal Soedirman Purwokerto","wd":"Q108947918","lat":-7.41979,"lng":109.19614,"img":null,"wp":null},{"name":"Monumen Serang Bertakwa","wd":"Q115823360","lat":-6.1168515,"lng":106.1512384,"img":null,"wp":null},{"name":"Perpustakaan Madrasah Tsanawiyah Negeri 6 Mandailing Natal","wd":"Q117069435","lat":0.626111111,"lng":99.306111111,"img":null,"wp":null},{"name":"Museum Kota Lama","wd":"Q134539489","lat":-6.969458966,"lng":110.430772437,"img":null,"wp":"https:\/\/id.wikipedia.org\/wiki\/Museum_Kota_Lama"},{"name":"Ketep Volcano Centre","wd":"Q134483042","lat":-7.492813188,"lng":110.38188054,"img":null,"wp":null},{"name":"Perpustakaan Akademi Entrepreneurship Terang Bangsa","wd":"Q121090029","lat":-6.955269,"lng":110.393845,"img":null,"wp":null},{"name":"Dinas Perpustakaan dan Arsip Provinsi Jambi","wd":"Q109483153","lat":-1.613109392,"lng":103.574587753,"img":"http:\/\/commons.wikimedia.org\/wiki\/Special:FilePath\/Dinas%20Perpustakaan%20dan%20Arsip%20Provinsi%20Jambi%203.jpg","wp":null},{"name":"Perpustakaan Aek Banir","wd":"Q135669099","lat":0.771830957,"lng":99.613391373,"img":null,"wp":null},{"name":"Museum Alat Musik","wd":"Q106281075","lat":-0.679445498,"lng":100.77673658,"img":null,"wp":null},{"name":"Museum Pancasila Sakti","wd":"Q109405227","lat":-6.288607481,"lng":106.907078207,"img":null,"wp":null},{"name":"Museum Purabaya","wd":"Q115857443","lat":-7.5773223,"lng":111.536692,"img":null,"wp":null},{"name":"Galery Marketing Online","wd":"Q115135080","lat":-0.94500601,"lng":100.37768461,"img":"http:\/\/commons.wikimedia.org\/wiki\/Special:FilePath\/Galery%20Marketing%20Online%20SMK%20N%202%20Padang.jpg","wp":null},{"name":"Perpustakaan Kecamatan Subang","wd":"Q116777677","lat":-6.5572392,"lng":107.7434653,"img":null,"wp":null},{"name":"Museum Muhammad Husni Thamrin","wd":"Q106278622","lat":-6.19389,"lng":106.84556,"img":null,"wp":null},{"name":"Perpustakaan Sekolah Dasar Negeri 091 Panyabungan","wd":"Q135986859","lat":0.863820297,"lng":99.550849608,"img":null,"wp":null},{"name":"Taman Bacaan Masyarakat Rita Home Library","wd":"Q117289664","lat":-6.86303,"lng":107.60761,"img":null,"wp":null},{"name":"Museum Villa Yuliana","wd":"Q115819402","lat":-4.348762585,"lng":119.88643637,"img":null,"wp":"https:\/\/id.wikipedia.org\/wiki\/Museum_Villa_Yuliana"},{"name":"Dinas Kearsipan dan Perpustakaan Kabupaten Nganjuk","wd":"Q109680156","lat":-7.602398314,"lng":111.904748753,"img":null,"wp":null},{"name":"Museum Sultan Agung Hanyokro Kusumo","wd":"Q115857094","lat":-7.7055664,"lng":110.7680875,"img":null,"wp":null},{"name":"Dinas Kearsipan dan Perpustakaan Kabupaten Lebong","wd":"Q109483200","lat":-3.148127851,"lng":102.230815653,"img":null,"wp":null},{"name":"Museum di Tengah Kebun","wd":"Q19746455","lat":-6.296328084,"lng":106.795030921,"img":"http:\/\/commons.wikimedia.org\/wiki\/Special:FilePath\/Museum%20kebun%2001.jpg","wp":"https:\/\/id.wikipedia.org\/wiki\/Museum_di_Tengah_Kebun"},{"name":"Dinas Kearsipan dan Perpustakaan Kabupaten Pidie Jaya","wd":"Q109381732","lat":5.359091303,"lng":95.961043572,"img":null,"wp":null},{"name":"Perpustakaan Sekolah Menengah Pertama Negeri 5 Siabu","wd":"Q135942872","lat":1.015801666,"lng":99.498578275,"img":null,"wp":null},{"name":"Perpustakaan Sekolah Menengah Atas Negeri 2 Kluet Utara","wd":"Q116890721","lat":3.097900025,"lng":97.312624451,"img":null,"wp":null},{"name":"Museum Trikora","wd":"Q109354796","lat":2.038109846,"lng":128.295321919,"img":null,"wp":null},{"name":"Museum Radya Pustaka","wd":"Q12499664","lat":-7.568031,"lng":110.8145,"img":"http:\/\/commons.wikimedia.org\/wiki\/Special:FilePath\/Museum%20Radyapustaka-Surakarta01.jpg","wp":"https:\/\/id.wikipedia.org\/wiki\/Museum_Radya_Pustaka"},{"name":"Dinas Kearsipan Kota Bekasi","wd":"Q109621256","lat":-6.293135887,"lng":106.939606453,"img":null,"wp":null},{"name":"Museum Huruf Jember","wd":"Q109433129","lat":-8.1679823,"lng":113.7070474,"img":null,"wp":"https:\/\/id.wikipedia.org\/wiki\/Museum_Huruf_Jember"},{"name":"Perpustakaan Sekolah Menengah Pertama Negeri 2 Rantau Selamat","wd":"Q121094219","lat":4.607092906,"lng":97.802791088,"img":null,"wp":null},{"name":"Perpustakaan Pusat Universitas Negeri Padang","wd":"Q115157770","lat":-0.896222,"lng":100.347146,"img":null,"wp":null},{"name":"Perpustakaan Kelurahan Kayujati","wd":"Q135778114","lat":0.866963992,"lng":99.5634014,"img":null,"wp":null},{"name":"Perpustakaan SMP Negeri 6 Panyabungan","wd":"Q136035504","lat":0.829720357,"lng":99.549390229,"img":null,"wp":null},{"name":"Museum dan Pabrik Gula Gondang Winangoen","wd":"Q16708013","lat":-7.722055555,"lng":110.560805555,"img":null,"wp":"https:\/\/id.wikipedia.org\/wiki\/Museum_dan_Pabrik_Gula_Gondang_Winangoen"},{"name":"UPTD Museum Negeri Propinsi Sulawesi Utara","wd":"Q115494094","lat":1.488185887,"lng":124.844655136,"img":null,"wp":null},{"name":"Perpustakaan Sekolah Dasar Negeri 021 Siabu","wd":"Q135974898","lat":1.015613915,"lng":99.49639525,"img":null,"wp":null},{"name":"Museum Marketing 3.0","wd":"Q97307643","lat":-8.505080042,"lng":115.26071639,"img":null,"wp":"https:\/\/id.wikipedia.org\/wiki\/Museum_Marketing_3.0"},{"name":"Perpustakaan Sekolah Dasar Winfield","wd":"Q126896985","lat":3.583312737,"lng":98.664438024,"img":null,"wp":null},{"name":"Perpustakaan UNIMA","wd":"Q115493896","lat":1.26828678,"lng":124.882052332,"img":null,"wp":null},{"name":"Dinas Perpustakaan dan Kearsipan Kota Denpasar","wd":"Q109513119","lat":-8.63417633,"lng":115.25609411,"img":null,"wp":null},{"name":"Museum Tambang Sulawesi Utara","wd":"Q109381496","lat":0.876114035,"lng":124.640746101,"img":null,"wp":null},{"name":"Museum Balanga","wd":"Q4216835","lat":-2.19499,"lng":113.90219,"img":null,"wp":"https:\/\/id.wikipedia.org\/wiki\/Museum_Balanga"},{"name":"Taman Bacaan Masyarakat Kineruku","wd":"Q117273366","lat":-6.87536,"lng":107.60059,"img":null,"wp":null},{"name":"Perpustakaan Laru Baringin","wd":"Q133929493","lat":0.717407216,"lng":99.636128977,"img":null,"wp":null},{"name":"Museum Zoologi Frater Vianney","wd":"Q108940613","lat":-7.95864,"lng":112.59638,"img":null,"wp":"https:\/\/id.wikipedia.org\/wiki\/Museum_Zoologi_Frater_Vianney"},{"name":"Museum Arkeologi Purbakala","wd":"Q7260864","lat":-8.519431219,"lng":115.293115968,"img":null,"wp":"https:\/\/id.wikipedia.org\/wiki\/Museum_Gedong_Arca"},{"name":"Museum Tari Sawahlunto","wd":"Q71556040","lat":-0.679916666,"lng":100.776805555,"img":null,"wp":"https:\/\/id.wikipedia.org\/wiki\/Rumah_Dinas_PT_BA-UPO_W.30"},{"name":"Museum Badau","wd":"Q108940789","lat":-2.81712,"lng":107.78293,"img":null,"wp":"https:\/\/id.wikipedia.org\/wiki\/Museum_Badau"},{"name":"Perpustakaan Universitas Bandar Lampung","wd":"Q109484001","lat":-5.362144913,"lng":105.240406144,"img":null,"wp":null},{"name":"Perpustakaan Sikara Kara II","wd":"Q133828552","lat":0.633923257,"lng":99.141325722,"img":null,"wp":null},{"name":"Patapan Sultan Banten","wd":"Q115824600","lat":-6.189711,"lng":106.28481,"img":null,"wp":null},{"name":"Perpustakaan STT Missio Dei Manado","wd":"Q115493923","lat":1.429715599,"lng":124.84495361,"img":null,"wp":null},{"name":"Museum Serangga dan Taman Kupu-Kupu","wd":"Q25454166","lat":-6.3055,"lng":106.89552,"img":null,"wp":"https:\/\/id.wikipedia.org\/wiki\/Museum_Serangga_dan_Taman_Kupu-Kupu"},{"name":"Perpustakaan Koto Boru","wd":"Q133868916","lat":0.62529816,"lng":99.845484044,"img":null,"wp":null},{"name":"Dinas Perpustakaan dan Kearsipan Kabupaten Probolinggo","wd":"Q109680624","lat":-7.767343028,"lng":113.246018557,"img":null,"wp":null},{"name":"Perpustakaan SMP Negeri 1 Ulumul Quran","wd":"Q121066400","lat":4.173915723,"lng":96.321423476,"img":null,"wp":null},{"name":"Dinas Perpustakaan dan Kearsipan Kabupaten Penukal Abab Lematang Ilir","wd":"Q109483356","lat":-3.272310915,"lng":103.829801078,"img":null,"wp":null},{"name":"Jogja Gallery","wd":"Q115156609","lat":-7.80273591,"lng":110.36565711,"img":null,"wp":null},{"name":"Taman Purbakala Waruga","wd":"Q115496188","lat":1.391686586,"lng":124.965130549,"img":null,"wp":null},{"name":"Perpustakaan Sekolah Dasar Islam Terpadu Riyadoturrohman","wd":"Q135986727","lat":0.830519659,"lng":99.564320044,"img":null,"wp":null},{"name":"Museum Negeri Gayo","wd":"Q97374388","lat":4.62745,"lng":96.84797,"img":null,"wp":"https:\/\/id.wikipedia.org\/wiki\/Museum_Negeri_Gayo"},{"name":"Dinas Perpustakaan dan Kearsipan Kabupaten Demak","wd":"Q109668916","lat":-6.896727064,"lng":110.635656266,"img":null,"wp":null},{"name":"Perpustakaan Sekolah Dasar Negeri 397 Padang Laru","wd":"Q136298925","lat":0.827259399,"lng":99.606372907,"img":null,"wp":null},{"name":"Dinas Perpustakaan dan Kearsipan Kota Yogyakarta","wd":"Q109658268","lat":-7.796929516,"lng":110.355574268,"img":null,"wp":null},{"name":"Perpustakaan Universitas Bung Hatta","wd":"Q115158066","lat":-0.906117197,"lng":100.34488444,"img":null,"wp":null},{"name":"Perpustakaan Sekolah Menengah Pertama Muhammadiyah Kampung Pisang","wd":"Q117285980","lat":3.565066243,"lng":96.995828581,"img":null,"wp":null},{"name":"Museum Zoologi Bogor","wd":"Q16746897","lat":-6.60365,"lng":106.79701,"img":"http:\/\/commons.wikimedia.org\/wiki\/Special:FilePath\/COLLECTIE%20TROPENMUSEUM%20Het%20Zo%C3%B7logisch%20Museum%20en%20laboratorium%20van%20%27s%20Lands%20Plantentuin%20te%20Buitenzorg%20West-Java%20TMnr%2010010799.jpg","wp":"https:\/\/id.wikipedia.org\/wiki\/Museum_Zoologi_Bogor"},{"name":"Museum Sanggar Apapuhang","wd":"Q136304771","lat":3.638855326,"lng":125.513379738,"img":"http:\/\/commons.wikimedia.org\/wiki\/Special:FilePath\/Ansambel%20Musik%20Lide%20dari%20kepulauan%20Sangihe%203.jpg","wp":"https:\/\/id.wikipedia.org\/wiki\/Museum_Sanggar_Apapuhang"},{"name":"Perpustakaan Sekolah Menengah Pertama Negeri 2 Meukek Kabupaten Aceh Selatan","wd":"Q117285971","lat":3.44472174,"lng":97.065295279,"img":null,"wp":null},{"name":"Dinas Perpustakaan dan Kearsipan Kota Bukittinggi","wd":"Q109421962","lat":-0.315347104,"lng":100.370499254,"img":null,"wp":null},{"name":"Perpustakaan Desa Pastap Julu","wd":"Q135778083","lat":0.646748806,"lng":99.634646659,"img":null,"wp":null},{"name":"Perpustakaan Huraba II","wd":"Q134425944","lat":1.012545059,"lng":99.546171239,"img":null,"wp":null},{"name":"Gedung Mohammad Hoesni Thamrin","wd":"Q12483682","lat":-6.193291906,"lng":106.845343138,"img":null,"wp":"https:\/\/id.wikipedia.org\/wiki\/Gedung_Mohammad_Hoesni_Thamrin"},{"name":"Museum HAM Omah Munir","wd":"Q109437032","lat":-7.845604326,"lng":112.528829578,"img":null,"wp":"https:\/\/id.wikipedia.org\/wiki\/Museum_HAM_Omah_Munir"},{"name":"Dinas Perpustakaan dan Kearsipan Kabupaten Tulungagung","wd":"Q109680122","lat":-8.06000272,"lng":111.908437455,"img":null,"wp":null},{"name":"Museum Konferensi Asia Afrika","wd":"Q10972781","lat":-6.9212134,"lng":107.6073265,"img":"http:\/\/commons.wikimedia.org\/wiki\/Special:FilePath\/Musium%20KAA.jpg","wp":"https:\/\/id.wikipedia.org\/wiki\/Museum_Konferensi_Asia_Afrika"},{"name":"Museum Karst dan Budaya","wd":"Q97222527","lat":-4.835847828,"lng":119.546678593,"img":"http:\/\/commons.wikimedia.org\/wiki\/Special:FilePath\/Museum%20Karst%20dan%20Budaya%2001.jpg","wp":"https:\/\/id.wikipedia.org\/wiki\/Museum_Karst_dan_Budaya"},{"name":"Perpustakaan Sinonoan","wd":"Q134059899","lat":0.99353211,"lng":99.513083636,"img":null,"wp":null},{"name":"Yayasan Amai Setia","wd":"Q61355371","lat":-0.313422239,"lng":100.354883526,"img":"http:\/\/commons.wikimedia.org\/wiki\/Special:FilePath\/Kerajinan%20Amai%20Setia.jpg","wp":"https:\/\/id.wikipedia.org\/wiki\/Yayasan_Amai_Setia"},{"name":"Museum Daerah Kabupaten Subang","wd":"Q109279323","lat":-6.568121928,"lng":107.756209284,"img":null,"wp":"https:\/\/id.wikipedia.org\/wiki\/Museum_Daerah_Kabupaten_Subang"},{"name":"Dinas Perpustakaan Dan Kearsipan Kota Padang Panjang","wd":"Q109421977","lat":-0.464033851,"lng":100.404744826,"img":null,"wp":null},{"name":"Perpustakaan Bappenas","wd":"Q111413321","lat":-6.200435787,"lng":106.832492494,"img":null,"wp":null},{"name":"Dinas Perpustakaan dan Kearsipan Provinsi Kalimantan Selatan","wd":"Q109581418","lat":-3.349658211,"lng":114.62747021,"img":null,"wp":null},{"name":"Museum Sunan Drajat","wd":"Q97307649","lat":-6.88412,"lng":112.38993,"img":null,"wp":"https:\/\/id.wikipedia.org\/wiki\/Museum_Sunan_Drajat"},{"name":"Museum Nasional Ketransmigrasian","wd":"Q18193219","lat":-5.3776289,"lng":105.1049164,"img":null,"wp":"https:\/\/id.wikipedia.org\/wiki\/Museum_Nasional_Ketransmigrasian"},{"name":"Museum Prasejarah Cipari","wd":"Q109466707","lat":-6.962389157,"lng":108.469269012,"img":null,"wp":null},{"name":"Musyafiq Art Gallery","wd":"Q115857066","lat":-7.6793488,"lng":110.6280072,"img":null,"wp":null},{"name":"Perpustakaan Museum Sonobudoyo","wd":"Q626867","lat":-7.801785,"lng":110.364003,"img":null,"wp":null},{"name":"Museum Pusaka Nias","wd":"Q12499662","lat":1.29841622,"lng":97.608737225,"img":"http:\/\/commons.wikimedia.org\/wiki\/Special:FilePath\/Objects%20of%20the%20Nias%20Heritage%20Museum%2C%20Gunungsitoli%20City%3B%20September%202024%20%2805%29.jpg","wp":"https:\/\/id.wikipedia.org\/wiki\/Museum_Pusaka_Nias"},{"name":"Istana Kerajaan Matan","wd":"Q104636636","lat":-1.8617181,"lng":109.9787346,"img":"http:\/\/commons.wikimedia.org\/wiki\/Special:FilePath\/Keraton%20Kerajaan%20Matan%2003.jpg","wp":null},{"name":"Perpustakaan Desa Sukamanah Rongga","wd":"Q117220733","lat":-6.990787397,"lng":107.283307147,"img":null,"wp":null},{"name":"Benteng Pendem Cilacap","wd":"Q4262369","lat":-7.74921,"lng":109.017,"img":"http:\/\/commons.wikimedia.org\/wiki\/Special:FilePath\/Barracks%2C%20Benteng%20Pendem%2C%20Cilacap%202015-03-21.jpg","wp":"https:\/\/id.wikipedia.org\/wiki\/Benteng_Pendem_Cilacap"},{"name":"Museum Manusia Purba Gilimanuk","wd":"Q108945830","lat":-8.16745,"lng":114.44061,"img":null,"wp":"https:\/\/id.wikipedia.org\/wiki\/Museum_Manusia_Prasejarah_Gilimanuk"},{"name":"Perpustakaan Sekolah Dasar Negeri 364 Panggautan","wd":"Q136091805","lat":0.579230882,"lng":99.109454548,"img":null,"wp":null},{"name":"Perpustakaan Batahan III","wd":"Q133858082","lat":0.359002457,"lng":99.202072766,"img":null,"wp":null},{"name":"Museum Tjok Agung Tresna Ayunan","wd":"Q115863021","lat":-8.510160034,"lng":115.200759128,"img":null,"wp":null},{"name":"Museum Siraja","wd":"Q97308161","lat":2.157360759,"lng":117.423413567,"img":null,"wp":"https:\/\/id.wikipedia.org\/wiki\/Museum_Siraja"},{"name":"Dinas Kearsipan dan Perpustakaan Kabupaten Rembang","wd":"Q109669049","lat":-6.723674356,"lng":111.348102539,"img":null,"wp":null},{"name":"Dinas Perpustakaan Dan Kearsipan Kota Surabaya","wd":"Q109680465","lat":-7.327524243,"lng":112.775806612,"img":null,"wp":null},{"name":"Museum Sasana Gunarasa","wd":"Q127105947","lat":-7.727027761,"lng":110.236309342,"img":null,"wp":null},{"name":"Museum Njana Tilem","wd":"Q109437500","lat":-8.536653,"lng":115.2697547,"img":null,"wp":"https:\/\/id.wikipedia.org\/wiki\/Museum_Njana_Tilem"},{"name":"Museum Tebing Tinggi","wd":"Q86587413","lat":3.328694444,"lng":99.162944444,"img":"http:\/\/commons.wikimedia.org\/wiki\/Special:FilePath\/Plang%20nama%20Museum%20Kota%20Tebing%20Tinggi.jpg","wp":"https:\/\/id.wikipedia.org\/wiki\/Museum_Tebing_Tinggi"},{"name":"Museum Juang 45 Sumatera Utara","wd":"Q86582752","lat":3.582118478,"lng":98.682362196,"img":null,"wp":null},{"name":"Perpustakaan UPI","wd":"Q115862389","lat":-6.859736177,"lng":107.59413684,"img":null,"wp":null},{"name":"Perpustakaan Lembaga Pemasyakatan Kelas II B","wd":"Q136378421","lat":0.804451977,"lng":99.576183162,"img":null,"wp":null},{"name":"Museum Kerajinan Kulit Manding","wd":"Q115863455","lat":-7.8948195,"lng":110.3495122,"img":null,"wp":null},{"name":"Perpustakaan Pelangi","wd":"Q117014338","lat":-3.977474979,"lng":105.361411206,"img":null,"wp":null},{"name":"Museum Negeri Banten","wd":"Q115823100","lat":-6.1160795,"lng":106.1480057,"img":null,"wp":null},{"name":"Museum Perangko","wd":"Q109002247","lat":-6.303930555,"lng":106.901780555,"img":null,"wp":null},{"name":"Museum Perundingan Linggajati","wd":"Q65203972","lat":-6.881254347,"lng":108.474790822,"img":"http:\/\/commons.wikimedia.org\/wiki\/Special:FilePath\/Gedung%20Perundingan%20Linggarjati%2C%20Kuningan001.JPG","wp":"https:\/\/id.wikipedia.org\/wiki\/Museum_Perundingan_Linggajati"},{"name":"Dinas Perpustakaan dan Kearsipan Kabupaten Cianjur","wd":"Q109621849","lat":-6.823576147,"lng":107.137130283,"img":null,"wp":null},{"name":"Walker Public Library Sekolah Tinggi Teologi Tawangmangu","wd":"Q121094088","lat":-7.661954878,"lng":111.13436725,"img":null,"wp":null},{"name":"Perpustakaan Kubangan Pandan Sari","wd":"Q133858061","lat":0.434198084,"lng":99.141928733,"img":null,"wp":null},{"name":"Museum Jawa Tengah Ranggawarsita","wd":"Q12499640","lat":-6.985946,"lng":110.383871,"img":null,"wp":"https:\/\/id.wikipedia.org\/wiki\/Museum_Ranggawarsita"},{"name":"Perpustakaan Paud Kemala Bhayangkari 14 Panyabungan","wd":"Q136003774","lat":0.865279171,"lng":99.562813072,"img":null,"wp":null},{"name":"Dinas Perpustakaan Daerah Kabupaten Bolaang Mongondow Timur","wd":"Q109528326","lat":0.769200846,"lng":124.613271155,"img":null,"wp":null},{"name":"Taman Bacaan masyarakat ZOE Comics Library","wd":"Q117273525","lat":-6.89701,"lng":107.61499,"img":null,"wp":null},{"name":"Dinas Perpustakaan dan Kearsipan Kabupaten Blora","wd":"Q109669089","lat":-6.965845677,"lng":111.422993197,"img":null,"wp":null},{"name":"Perpustakaan Tagilang Julu","wd":"Q133828180","lat":0.895934467,"lng":99.164428093,"img":null,"wp":null},{"name":"Museum Nyah Lasem","wd":"Q109433494","lat":-6.7008,"lng":111.44672,"img":"http:\/\/commons.wikimedia.org\/wiki\/Special:FilePath\/Museum%20Nyah%20Lasem%20%28Beranda%20Depan%29.jpg","wp":"https:\/\/id.wikipedia.org\/wiki\/Museum_Nyah_Lasem"},{"name":"Museum Gedung Perundingan Linggarjati","wd":"Q108940288","lat":-6.88112,"lng":108.47484,"img":"http:\/\/commons.wikimedia.org\/wiki\/Special:FilePath\/Gedung%20Perundingan%20Linggarjati%2C%20Kuningan001.JPG","wp":null},{"name":"Rumah Perundingan PDRI di Padang Japang","wd":"Q124251826","lat":-0.1123305,"lng":100.536551519,"img":"http:\/\/commons.wikimedia.org\/wiki\/Special:FilePath\/Rumah%20Perundingan%20PDRI%20Padang%20Japang%202023%2001.jpg","wp":null},{"name":"Perpustakaan Batang Gadis","wd":"Q134426293","lat":0.850547329,"lng":99.531858592,"img":null,"wp":null},{"name":"Museum Indo Tadung","wd":"Q108940672","lat":-2.996355617,"lng":119.909876371,"img":"http:\/\/commons.wikimedia.org\/wiki\/Special:FilePath\/Museum%20Indo%20Tadung%20Toraja%20Utara%2007.jpg","wp":null},{"name":"Museum Juang Kabupaten Bungo","wd":"Q115863370","lat":-1.482043478,"lng":102.118279751,"img":null,"wp":null},{"name":"Perpustakaan Desa Tirtasari","wd":"Q117191902","lat":-6.346338431,"lng":107.434473293,"img":null,"wp":null},{"name":"Perpustakaan Kampung Kapas I","wd":"Q133858075","lat":0.422544301,"lng":99.336095821,"img":null,"wp":null},{"name":"Museum Koleksi dan Galeri Raz","wd":"Q97198839","lat":3.56811,"lng":98.64381,"img":null,"wp":"https:\/\/id.wikipedia.org\/wiki\/Museum_Koleksi_dan_Galeri_Raz"},{"name":"Museum Asmat","wd":"Q115863153","lat":-5.540357111,"lng":138.134108537,"img":null,"wp":null},{"name":"Perpustakaan Aek Mata","wd":"Q135669095","lat":0.864337617,"lng":99.555388586,"img":null,"wp":null},{"name":"Museum Harry Darsono","wd":"Q94957247","lat":-6.287929085,"lng":106.801942957,"img":null,"wp":"https:\/\/id.wikipedia.org\/wiki\/Museum_Harry_Darsono"},{"name":"Dinas Perpustakaan dan Kearsipan Kota Probolinggo","wd":"Q109680604","lat":-7.756046766,"lng":113.211044541,"img":null,"wp":null},{"name":"Dinas Kearsipan dan Perpustakaan Provinsi Bangka Belitung","wd":"Q109484058","lat":-2.119062029,"lng":106.113824597,"img":null,"wp":null},{"name":"RuangDalam Art House","wd":"Q117289322","lat":-7.821387242,"lng":110.341891293,"img":null,"wp":null},{"name":"Museum Keraton Kasepuhan","wd":"Q115804774","lat":-6.727431456,"lng":108.571042397,"img":null,"wp":null},{"name":"Museum Radio AURI PC 2","wd":"Q115863041","lat":-7.9507364,"lng":110.5426285,"img":null,"wp":null},{"name":"Perpustakaan Desa Tanjung Baru","wd":"Q117031684","lat":-4.133570701,"lng":104.173123827,"img":null,"wp":null},{"name":"Dinas Kearsipan dan Perpustakaan Provinsi Gorontalo","wd":"Q109528650","lat":0.564687671,"lng":123.06107731,"img":null,"wp":null},{"name":"Museum Bank Indonesia Padang","wd":"Q19745831","lat":-0.96449,"lng":100.35827,"img":"http:\/\/commons.wikimedia.org\/wiki\/Special:FilePath\/Bank%20Indonesia%20Lama%20Padang%20atas.JPG","wp":"https:\/\/id.wikipedia.org\/wiki\/Gedung_De_Javasche_Bank_Padang"},{"name":"Museum Sarwo Edhie Wibowo - Kodam XVII Cendrawasih","wd":"Q115863178","lat":-2.529059654,"lng":140.71669437,"img":null,"wp":null},{"name":"Perpustakaan Erasmus Huis","wd":"Q117306027","lat":-6.23406,"lng":106.82835,"img":"http:\/\/commons.wikimedia.org\/wiki\/Special:FilePath\/Perpustakaan%20Erasmus%20Huis.jpg","wp":null},{"name":"Museum Seni Batuan","wd":"Q97374415","lat":-8.585432856,"lng":115.28091413,"img":null,"wp":"https:\/\/id.wikipedia.org\/wiki\/Museum_Seni_Batuan"},{"name":"Museum Galeri Musik Dunia","wd":"Q126166278","lat":-7.897,"lng":112.553111111,"img":null,"wp":null},{"name":"Erasmus Huis","wd":"Q2558851","lat":-6.234361111,"lng":106.828722222,"img":null,"wp":"https:\/\/id.wikipedia.org\/wiki\/Erasmus_Huis"},{"name":"Dinas Perpustakaan dan Kearsipan Kota Batu","wd":"Q109680642","lat":-7.881522658,"lng":112.534468353,"img":null,"wp":null},{"name":"Museum Arca Sonokridanggo","wd":"Q115804095","lat":-7.5310731,"lng":110.5952742,"img":null,"wp":null},{"name":"Dinas Perpustakaan dan Kearsipan Daerah Provinsi Sulawesi Utara","wd":"Q109528057","lat":1.483412215,"lng":124.848857068,"img":null,"wp":null},{"name":"Keraton Sumedang Larang","wd":"Q4262432","lat":-6.860974144,"lng":107.92082198,"img":"http:\/\/commons.wikimedia.org\/wiki\/Special:FilePath\/Makuta%20Binokasih.jpg","wp":"https:\/\/id.wikipedia.org\/wiki\/Keraton_Sumedang_Larang"},{"name":"Perpustakaan Pesantren Al-Mandily","wd":"Q136003766","lat":0.761675303,"lng":99.571217569,"img":null,"wp":null},{"name":"Perpustakaan SLBB Karya Murni","wd":"Q126894737","lat":3.568530349,"lng":98.70253699,"img":null,"wp":null},{"name":"Museum BPK RI","wd":"Q108950505","lat":-7.47429,"lng":110.21413,"img":null,"wp":"https:\/\/id.wikipedia.org\/wiki\/Museum_Badan_Pemeriksa_Keuangan_Republik_Indonesia"},{"name":"Museum Kereta Api Sawahlunto","wd":"Q3140705","lat":-0.682913888,"lng":100.776946111,"img":"http:\/\/commons.wikimedia.org\/wiki\/Special:FilePath\/Museum%20Kereta%20Api%20Sawahlunto%202018.jpg","wp":"https:\/\/id.wikipedia.org\/wiki\/Museum_Kereta_Api_Sawahlunto"},{"name":"Museum Panataran","wd":"Q115862704","lat":-8.0122108,"lng":112.2080016,"img":null,"wp":null},{"name":"perpustakaan Akademi Pariwisata dan Perhotelan Darma Agung","wd":"Q126678926","lat":3.578776808,"lng":98.66441923,"img":null,"wp":null},{"name":"Langgeng Art Space","wd":"Q109745321","lat":-7.819235544,"lng":110.360946216,"img":null,"wp":null},{"name":"Dinas Kearsipan dan Perpustakaan Kabupaten Kapuas","wd":"Q109568236","lat":-3.022179751,"lng":114.390199966,"img":null,"wp":null},{"name":"Museum Prabu Siliwangi","wd":"Q97306883","lat":-6.90639,"lng":106.91332,"img":null,"wp":"https:\/\/id.wikipedia.org\/wiki\/Museum_Prabu_Siliwangi"},{"name":"Cemeti - Institute for Art and Society","wd":"Q115156839","lat":-7.817791794,"lng":110.362349196,"img":null,"wp":null},{"name":"Dinas Perpustakaan, Kearsipan dan Dokumentasi Daerah Provinsi Kalimantan Barat","wd":"Q109567022","lat":-0.047563343,"lng":109.340913039,"img":null,"wp":null},{"name":"Perpustakaan Desa Jambur Padang Matinggi","wd":"Q136294078","lat":0.937089416,"lng":99.513496935,"img":null,"wp":null},{"name":"Dinas Perpustakaan dan Kearsipan Provinsi Sulawesi Selatan","wd":"Q109559906","lat":-5.103372927,"lng":119.510407912,"img":null,"wp":null},{"name":"Perpustakaan Sekolah Dasar Swasta Budi Murni","wd":"Q120953860","lat":3.35,"lng":97.933333333,"img":null,"wp":null},{"name":"Museum Mini Didi Kempot","wd":"Q115857140","lat":-7.5482559,"lng":110.805848,"img":null,"wp":null},{"name":"Museum Diponegoro","wd":"Q13095246","lat":-7.474843403,"lng":110.214971603,"img":"http:\/\/commons.wikimedia.org\/wiki\/Special:FilePath\/Gate%20of%20Monumen%20Pangeran%20Diponegoro%20Museum.jpg","wp":null},{"name":"Museum Konservasi Penyu","wd":"Q115133326","lat":-0.827833,"lng":100.30235,"img":"http:\/\/commons.wikimedia.org\/wiki\/Special:FilePath\/Museum%20Konservasi%20Penyu.jpg","wp":null},{"name":"Dinas Perpustakaan dan Kearsipan Daerah Provinsi Sulawesi Utara","wd":"Q115323742","lat":1.483412215,"lng":124.8488571,"img":null,"wp":null},{"name":"Perpustakaan Sekolah Dasar Negeri 069 Mompang Julu","wd":"Q135979488","lat":0.907328904,"lng":99.537373004,"img":null,"wp":null},{"name":"Gayo Gallery","wd":"Q115862712","lat":-6.824112197,"lng":107.597147538,"img":null,"wp":null},{"name":"Dinas Kearsipan dan Perpustakaan Kabupaten Merangin","wd":"Q109483185","lat":-2.060741999,"lng":102.274469354,"img":null,"wp":null},{"name":"Perpustakaan Son Keplaksari","wd":"Q115858774","lat":-7.5426839,"lng":112.2602361,"img":null,"wp":null},{"name":"Kutubkhanah HAKA","wd":"Q131457536","lat":-0.34781906,"lng":100.222276144,"img":null,"wp":"https:\/\/id.wikipedia.org\/wiki\/Kutubkhanah_HAKA"},{"name":"Perpustakaan  SD S 118 Muhammadiyah Gunungtua","wd":"Q136462756","lat":0.87512651,"lng":99.561554154,"img":null,"wp":null},{"name":"Perpustakaan Universitas Logistik dan Bisnis Internasional","wd":"Q116890740","lat":-6.400145994,"lng":107.652031667,"img":null,"wp":null},{"name":"Perpustakaan Tanjung Julu","wd":"Q134459848","lat":0.784030575,"lng":99.667857399,"img":null,"wp":null},{"name":"UPT Perpustakaan SMA Lokon St. Nikolaus Tomohon","wd":"Q115283883","lat":1.346743155,"lng":124.824111419,"img":null,"wp":null},{"name":"Perpustakaan Desa Harapan Makmur","wd":"Q117031738","lat":-3.384699,"lng":103.457357,"img":null,"wp":null},{"name":"Perpustakaan Parmompang","wd":"Q134461838","lat":0.800746302,"lng":99.63579486,"img":null,"wp":null},{"name":"Museum Fohorai","wd":"Q108920211","lat":-9.031470418,"lng":124.860682507,"img":null,"wp":null},{"name":"Situs Giri Kedaton dan Makam Raden Supeno","wd":"Q115864182","lat":-7.1714933,"lng":112.62812,"img":null,"wp":null},{"name":"Museum Vulkanologi","wd":"Q108947552","lat":-7.59996,"lng":110.22307,"img":null,"wp":"https:\/\/id.wikipedia.org\/wiki\/Museum_Vulkanologi"},{"name":"Museum Negeri Provinsi Nusa Tenggara Barat","wd":"Q108940688","lat":-8.58454,"lng":116.08598,"img":null,"wp":null},{"name":"Museum Balaputera Dewa","wd":"Q48728288","lat":-2.95096,"lng":104.73069,"img":"http:\/\/commons.wikimedia.org\/wiki\/Special:FilePath\/Rumah%20Limas%20of%20IDR%2010000%20banknote.jpg","wp":"https:\/\/id.wikipedia.org\/wiki\/Museum_Balaputera_Dewa"},{"name":"Perpustakaan Umum Daerah Provinsi Papua Barat","wd":"Q131190871","lat":-0.919255505,"lng":134.028377045,"img":null,"wp":null},{"name":"Museum Uang Purbalingga","wd":"Q109437481","lat":-7.355716502,"lng":109.331404853,"img":null,"wp":"https:\/\/id.wikipedia.org\/wiki\/Museum_Uang_Purbalingga"},{"name":"Wale Manguni","wd":"Q115495945","lat":1.182733896,"lng":124.792675503,"img":null,"wp":null},{"name":"Museum Bahari Yogyakarta","wd":"Q109483737","lat":-7.800938633,"lng":110.349805052,"img":null,"wp":"https:\/\/id.wikipedia.org\/wiki\/Museum_Bahari_Yogyakarta"},{"name":"Dinas Perpustakaan, Arsip dan Dokumentasi Kabupaten Donggala","wd":"Q109547442","lat":-0.42316025,"lng":119.835218997,"img":null,"wp":null},{"name":"Taman Bacaan Masyarakat Pitimoss Fun Library","wd":"Q117272598","lat":-6.91261,"lng":107.61802,"img":null,"wp":null},{"name":"Perpustakaan Sekolah Menengah Atas Negeri Idi","wd":"Q121037041","lat":4.940567214,"lng":97.779290729,"img":null,"wp":null},{"name":"Museum Melange Karangsambung","wd":"Q115860670","lat":-7.546371135,"lng":109.673533366,"img":null,"wp":null},{"name":"perpustakaan Desa Gempol","wd":"Q116777077","lat":-6.268369,"lng":107.8765946,"img":null,"wp":null},{"name":"Dinas Kearsipan dan Perpustakaan Kota Banjar","wd":"Q109640934","lat":-7.359457465,"lng":108.538829826,"img":null,"wp":null},{"name":"Dinas Kearsipan dan Perpustakaan Kabupaten Tanjung Jabung Barat","wd":"Q109483135","lat":-0.821672636,"lng":103.467301383,"img":null,"wp":null},{"name":"Perpustakaan Huta Tonga AB","wd":"Q133929934","lat":0.699398739,"lng":99.631812977,"img":null,"wp":null},{"name":"Museum Pengkhianatan PKI","wd":"Q97241073","lat":-6.291061598,"lng":106.907313582,"img":null,"wp":"https:\/\/id.wikipedia.org\/wiki\/Museum_Pengkhianatan_PKI"},{"name":"Museum Negeri Provinsi Banten","wd":"Q97195162","lat":-6.115704804,"lng":106.15035989,"img":"http:\/\/commons.wikimedia.org\/wiki\/Special:FilePath\/Museum%20Negeri%20Banten%202025-07-15.jpg","wp":"https:\/\/id.wikipedia.org\/wiki\/Museum_Negeri_Provinsi_Banten"},{"name":"Museum PDRI","wd":"Q19746312","lat":-0.021202744,"lng":100.369322647,"img":null,"wp":"https:\/\/id.wikipedia.org\/wiki\/Museum_Nasional_PDRI"},{"name":"Perpustakaan Madrasah Tsanawiyah Negeri 6 Mandailing Natal","wd":"Q136091837","lat":0.626356326,"lng":99.306281689,"img":null,"wp":null},{"name":"Perpustakaan STIE Sutaatmadja","wd":"Q115861669","lat":-6.56467919,"lng":107.766121678,"img":null,"wp":null},{"name":"Museum Literasi Gol A Gong","wd":"Q115824028","lat":-6.1288832,"lng":106.1776258,"img":null,"wp":null},{"name":"Museum Pusat TNI AU Dirgantara Mandala","wd":"Q13095241","lat":-7.790362,"lng":110.417379,"img":"http:\/\/commons.wikimedia.org\/wiki\/Special:FilePath\/Bae%20Hawk%20Indonesian%20Air%20Force%20at%20Dirgantara%20Mandala%20Museum.jpg","wp":"https:\/\/id.wikipedia.org\/wiki\/Museum_Pusat_TNI_AU_Dirgantara_Mandala"},{"name":"Perjuangan Bukit Barisan","wd":"Q86582753","lat":3.584562639,"lng":98.674020146,"img":null,"wp":null},{"name":"Perpustakaan Desa Gunung Tua Tonga","wd":"Q136293661","lat":0.885395083,"lng":99.560817733,"img":null,"wp":null},{"name":"Perpustakaan Sekolah Menengah Atas Muhammadiyah 13","wd":"Q136378261","lat":0.881893605,"lng":99.561825021,"img":null,"wp":null},{"name":"Museum Kendil Kemilau Emas","wd":"Q65203941","lat":0.341938338,"lng":100.95772827,"img":"http:\/\/commons.wikimedia.org\/wiki\/Special:FilePath\/Rumah%20Lontiak%20Kandil%20Kemilau%20Emas%20%285%29.jpg","wp":"https:\/\/id.wikipedia.org\/wiki\/Museum_Kandil_Kemilau_Emas"},{"name":"Museum Naladipa","wd":"Q109433501","lat":-7.417395083,"lng":108.948621772,"img":null,"wp":"https:\/\/id.wikipedia.org\/wiki\/Museum_Naladipa"},{"name":"Dinas Perpustakaan dan Kearsipan Kabupaten Boyolali","wd":"Q109668727","lat":-7.532305441,"lng":110.600913553,"img":null,"wp":null},{"name":"Museum Pendet","wd":"Q109438931","lat":-8.522697748,"lng":115.257516784,"img":null,"wp":"https:\/\/id.wikipedia.org\/wiki\/Museum_Pendet"},{"name":"Dinas Kearsipan dan Perpustakaan Kota Tomohon","wd":"Q115249935","lat":1.326225881,"lng":124.8418754,"img":null,"wp":null},{"name":"Museum Penataran","wd":"Q97307646","lat":-8.01258,"lng":112.20893,"img":null,"wp":"https:\/\/id.wikipedia.org\/wiki\/Museum_Penataran"},{"name":"Museum Pemberlajaran Universitas Negeri Malang","wd":"Q115393361","lat":-7.963233961,"lng":112.618954987,"img":null,"wp":null},{"name":"Museum Pidie Jaya","wd":"Q115862606","lat":5.2296735,"lng":96.242043,"img":null,"wp":null},{"name":"Dinas Kearsipan dan Perpustakaan Kabupaten Bengkulu Utara","wd":"Q109483211","lat":-3.436081461,"lng":102.204613481,"img":null,"wp":null},{"name":"Perpustakaan Aek Ngali","wd":"Q134451435","lat":0.785246441,"lng":99.535810265,"img":null,"wp":null},{"name":"Museum Olahraga Nasional","wd":"Q12499657","lat":-6.3040053,"lng":106.889122227,"img":"http:\/\/commons.wikimedia.org\/wiki\/Special:FilePath\/Museum%20Olahraga%20TMII%20-%20panoramio.jpg","wp":"https:\/\/id.wikipedia.org\/wiki\/Museum_Olahraga"},{"name":"Museum Menara Gentala Arasy","wd":"Q97306880","lat":-1.58425,"lng":103.61409,"img":"http:\/\/commons.wikimedia.org\/wiki\/Special:FilePath\/Gntl%20Arsy.jpg","wp":"https:\/\/id.wikipedia.org\/wiki\/Museum_Menara_Gentala_Arasy"},{"name":"Perpustakaan Sekolah Dasar Negeri 112 Parbangunan","wd":"Q136378401","lat":0.794530989,"lng":99.572916664,"img":null,"wp":null},{"name":"Dinas Perpustakaan dan Kearsipan Kabupaten Tanah Laut","wd":"Q109581454","lat":-3.802154879,"lng":114.784353,"img":null,"wp":null},{"name":"Perpustakaan Sekolah Menengah Pertama Negeri 1 Peureulak","wd":"Q121094299","lat":4.872363057,"lng":97.851748467,"img":null,"wp":null},{"name":"Dinas Perpustakaan dan Kearsipan Kabupaten Banyuwangi","wd":"Q109702116","lat":-8.216098791,"lng":114.366202039,"img":null,"wp":null},{"name":"Dinas Perpustakaan dan Kearsipan Kabupaten Batang","wd":"Q109668222","lat":-6.915826204,"lng":109.723320868,"img":null,"wp":null},